<?xml version="1.0" encoding="utf-8"?>
<kml xmlns="http://www.opengis.net/kml/2.2">
  <Document>
    <name>BrightonBuses - all stops</name>
    <Placemark>
      <name>Rajdutt Restaurant</name>
      <Snippet>6400</Snippet>
      <description>&lt;div class="stopInfoWindow-esudadga" data-stopid="6400"&gt;&lt;span class="naptancode"&gt;esudadga&lt;/span&gt;&lt;span class="services"&gt;&lt;/span&gt;&lt;/div&gt;</description>
      <Point>
        <coordinates>0.116962626576411,50.9529132437423</coordinates>
      </Point>
    </Placemark>
    <Placemark>
      <name>Cysleys Farm (by request only)</name>
      <Snippet>6401</Snippet>
      <description>&lt;div class="stopInfoWindow-esudgpgj" data-stopid="6401"&gt;&lt;span class="naptancode"&gt;esudgpgj&lt;/span&gt;&lt;span class="services"&gt;&lt;/span&gt;&lt;/div&gt;</description>
      <Point>
        <coordinates>0.113560996949675,50.9551042876508</coordinates>
      </Point>
    </Placemark>
    <Placemark>
      <name>New Road</name>
      <Snippet>6402</Snippet>
      <description>&lt;div class="stopInfoWindow-esudgpgd" data-stopid="6402"&gt;&lt;span class="naptancode"&gt;esudgpgd&lt;/span&gt;&lt;span class="services"&gt;&lt;/span&gt;&lt;/div&gt;</description>
      <Point>
        <coordinates>0.107061997056007,50.9583129882813</coordinates>
      </Point>
    </Placemark>
    <Placemark>
      <name>Nightingale Rise</name>
      <Snippet>6403</Snippet>
      <description>&lt;div class="stopInfoWindow-esuawmtd" data-stopid="6403"&gt;&lt;span class="naptancode"&gt;esuawmtd&lt;/span&gt;&lt;span class="services"&gt;&lt;/span&gt;&lt;/div&gt;</description>
      <Point>
        <coordinates>0.102764166666667,50.9598991666667</coordinates>
      </Point>
    </Placemark>
    <Placemark>
      <name>The Highlands Eastbourne Road</name>
      <Snippet>6404</Snippet>
      <description>&lt;div class="stopInfoWindow-esuawmtj" data-stopid="6404"&gt;&lt;span class="naptancode"&gt;esuawmtj&lt;/span&gt;&lt;span class="services"&gt;&lt;/span&gt;&lt;/div&gt;</description>
      <Point>
        <coordinates>0.100209100528308,50.9614543270815</coordinates>
      </Point>
    </Placemark>
    <Placemark>
      <name>opp Halland House</name>
      <Snippet>6405</Snippet>
      <description>&lt;div class="stopInfoWindow-esudadam" data-stopid="6405"&gt;&lt;span class="naptancode"&gt;esudadam&lt;/span&gt;&lt;span class="services"&gt;&lt;/span&gt;&lt;/div&gt;</description>
      <Point>
        <coordinates>0.135240271687511,50.9298601907347</coordinates>
      </Point>
    </Placemark>
    <Placemark>
      <name>Memorial Roundabout</name>
      <Snippet>6406</Snippet>
      <description>&lt;div class="stopInfoWindow-esuagatg" data-stopid="6406"&gt;&lt;span class="naptancode"&gt;esuagatg&lt;/span&gt;&lt;span class="services"&gt;&lt;/span&gt;&lt;/div&gt;</description>
      <Point>
        <coordinates>0.284466147422804,50.7670716866585</coordinates>
      </Point>
    </Placemark>
    <Placemark>
      <name>Knowle Lane</name>
      <Snippet>6407</Snippet>
      <description>&lt;div class="stopInfoWindow-esudadat" data-stopid="6407"&gt;&lt;span class="naptancode"&gt;esudadat&lt;/span&gt;&lt;span class="services"&gt;&lt;/span&gt;&lt;/div&gt;</description>
      <Point>
        <coordinates>0.126811006613852,50.9356570449457</coordinates>
      </Point>
    </Placemark>
    <Placemark>
      <name>Framfield Turn (by request only)</name>
      <Snippet>6408</Snippet>
      <description>&lt;div class="stopInfoWindow-" data-stopid="6408"&gt;&lt;span class="naptancode"&gt;&lt;/span&gt;&lt;span class="services"&gt;&lt;/span&gt;&lt;/div&gt;</description>
      <Point>
        <coordinates>0.119183935224991,50.9485791523619</coordinates>
      </Point>
    </Placemark>
    <Placemark>
      <name>Boarding Kennels (by request only)</name>
      <Snippet>6409</Snippet>
      <description>&lt;div class="stopInfoWindow-" data-stopid="6409"&gt;&lt;span class="naptancode"&gt;&lt;/span&gt;&lt;span class="services"&gt;&lt;/span&gt;&lt;/div&gt;</description>
      <Point>
        <coordinates>0.117675965610093,50.9429582761672</coordinates>
      </Point>
    </Placemark>
    <Placemark>
      <name>Brewers</name>
      <Snippet>6410</Snippet>
      <description>&lt;div class="stopInfoWindow-esuadpmp" data-stopid="6410"&gt;&lt;span class="naptancode"&gt;esuadpmp&lt;/span&gt;&lt;span class="services"&gt;&lt;/span&gt;&lt;/div&gt;</description>
      <Point>
        <coordinates>0.305164576721211,50.7876949582354</coordinates>
      </Point>
    </Placemark>
    <Placemark>
      <name>Lottbridge Drove</name>
      <Snippet>6411</Snippet>
      <description>&lt;div class="stopInfoWindow-esuagjap" data-stopid="6411"&gt;&lt;span class="naptancode"&gt;esuagjap&lt;/span&gt;&lt;span class="services"&gt;&lt;/span&gt;&lt;/div&gt;</description>
      <Point>
        <coordinates>0.307851146825153,50.7856449623993</coordinates>
      </Point>
    </Placemark>
    <Placemark>
      <name>Princes Road</name>
      <Snippet>6412</Snippet>
      <description>&lt;div class="stopInfoWindow-esuadptd" data-stopid="6412"&gt;&lt;span class="naptancode"&gt;esuadptd&lt;/span&gt;&lt;span class="services"&gt;&lt;/span&gt;&lt;/div&gt;</description>
      <Point>
        <coordinates>0.314747525151557,50.7915824163969</coordinates>
      </Point>
    </Placemark>
    <Placemark>
      <name>Sovereign Centre</name>
      <Snippet>6413</Snippet>
      <description>&lt;div class="stopInfoWindow-esuadpma" data-stopid="6413"&gt;&lt;span class="naptancode"&gt;esuadpma&lt;/span&gt;&lt;span class="services"&gt;&lt;/span&gt;&lt;/div&gt;</description>
      <Point>
        <coordinates>0.312388328043607,50.7817017540163</coordinates>
      </Point>
    </Placemark>
    <Placemark>
      <name>Princes Park</name>
      <Snippet>6414</Snippet>
      <description>&lt;div class="stopInfoWindow-esuadpjt" data-stopid="6414"&gt;&lt;span class="naptancode"&gt;esuadpjt&lt;/span&gt;&lt;span class="services"&gt;&lt;/span&gt;&lt;/div&gt;</description>
      <Point>
        <coordinates>0.310128746032707,50.7797672527173</coordinates>
      </Point>
    </Placemark>
    <Placemark>
      <name>Channel View Road</name>
      <Snippet>6415</Snippet>
      <description>&lt;div class="stopInfoWindow-esuadpjp" data-stopid="6415"&gt;&lt;span class="naptancode"&gt;esuadpjp&lt;/span&gt;&lt;span class="services"&gt;&lt;/span&gt;&lt;/div&gt;</description>
      <Point>
        <coordinates>0.306966990232468,50.7781677246094</coordinates>
      </Point>
    </Placemark>
    <Placemark>
      <name>Beach Road</name>
      <Snippet>6416</Snippet>
      <description>&lt;div class="stopInfoWindow-esuadpjg" data-stopid="6416"&gt;&lt;span class="naptancode"&gt;esuadpjg&lt;/span&gt;&lt;span class="services"&gt;&lt;/span&gt;&lt;/div&gt;</description>
      <Point>
        <coordinates>0.303168017196662,50.7768067843043</coordinates>
      </Point>
    </Placemark>
    <Placemark>
      <name>Military Museum</name>
      <Snippet>6417</Snippet>
      <description>&lt;div class="stopInfoWindow-esuadpgw" data-stopid="6417"&gt;&lt;span class="naptancode"&gt;esuadpgw&lt;/span&gt;&lt;span class="services"&gt;&lt;/span&gt;&lt;/div&gt;</description>
      <Point>
        <coordinates>0.300548113759347,50.7753109100534</coordinates>
      </Point>
    </Placemark>
    <Placemark>
      <name>Cambridge Road</name>
      <Snippet>6418</Snippet>
      <description>&lt;div class="stopInfoWindow-esuadpgp" data-stopid="6418"&gt;&lt;span class="naptancode"&gt;esuadpgp&lt;/span&gt;&lt;span class="services"&gt;&lt;/span&gt;&lt;/div&gt;</description>
      <Point>
        <coordinates>0.29915,50.7727833333333</coordinates>
      </Point>
    </Placemark>
    <Placemark>
      <name>Sea House Square</name>
      <Snippet>6419</Snippet>
      <description>&lt;div class="stopInfoWindow-esuadpgm" data-stopid="6419"&gt;&lt;span class="naptancode"&gt;esuadpgm&lt;/span&gt;&lt;span class="services"&gt;&lt;/span&gt;&lt;/div&gt;</description>
      <Point>
        <coordinates>0.295432388782513,50.7699343907051</coordinates>
      </Point>
    </Placemark>
    <Placemark>
      <name>Rajdutt Restaurant</name>
      <Snippet>6420</Snippet>
      <description>&lt;div class="stopInfoWindow-esudadaw" data-stopid="6420"&gt;&lt;span class="naptancode"&gt;esudadaw&lt;/span&gt;&lt;span class="services"&gt;&lt;/span&gt;&lt;/div&gt;</description>
      <Point>
        <coordinates>0.116623505949991,50.9528964502018</coordinates>
      </Point>
    </Placemark>
    <Placemark>
      <name>Cysleys Farm (by request only)</name>
      <Snippet>6421</Snippet>
      <description>&lt;div class="stopInfoWindow-esudgpgm" data-stopid="6421"&gt;&lt;span class="naptancode"&gt;esudgpgm&lt;/span&gt;&lt;span class="services"&gt;&lt;/span&gt;&lt;/div&gt;</description>
      <Point>
        <coordinates>0.113366335630412,50.9550134845642</coordinates>
      </Point>
    </Placemark>
    <Placemark>
      <name>New Road</name>
      <Snippet>6422</Snippet>
      <description>&lt;div class="stopInfoWindow-esuawmta" data-stopid="6422"&gt;&lt;span class="naptancode"&gt;esuawmta&lt;/span&gt;&lt;span class="services"&gt;&lt;/span&gt;&lt;/div&gt;</description>
      <Point>
        <coordinates>0.106849062169387,50.9582537221496</coordinates>
      </Point>
    </Placemark>
    <Placemark>
      <name>Nightingale Rise (by request only)</name>
      <Snippet>6423</Snippet>
      <description>&lt;div class="stopInfoWindow-esuawmtg" data-stopid="6423"&gt;&lt;span class="naptancode"&gt;esuawmtg&lt;/span&gt;&lt;span class="services"&gt;&lt;/span&gt;&lt;/div&gt;</description>
      <Point>
        <coordinates>0.102701289681315,50.9597737978286</coordinates>
      </Point>
    </Placemark>
    <Placemark>
      <name>The Highlands Eastbourne Road</name>
      <Snippet>6424</Snippet>
      <description>&lt;div class="stopInfoWindow-esuawmtm" data-stopid="6424"&gt;&lt;span class="naptancode"&gt;esuawmtm&lt;/span&gt;&lt;span class="services"&gt;&lt;/span&gt;&lt;/div&gt;</description>
      <Point>
        <coordinates>0.100065846557622,50.9612720039707</coordinates>
      </Point>
    </Placemark>
    <Placemark>
      <name>Memorial Roundabout</name>
      <Snippet>6425</Snippet>
      <description>&lt;div class="stopInfoWindow-esuagatd" data-stopid="6425"&gt;&lt;span class="naptancode"&gt;esuagatd&lt;/span&gt;&lt;span class="services"&gt;&lt;/span&gt;&lt;/div&gt;</description>
      <Point>
        <coordinates>0.284887373447424,50.7670203719312</coordinates>
      </Point>
    </Placemark>
    <Placemark>
      <name>Knowle Lane</name>
      <Snippet>6426</Snippet>
      <description>&lt;div class="stopInfoWindow-esudadap" data-stopid="6426"&gt;&lt;span class="naptancode"&gt;esudadap&lt;/span&gt;&lt;span class="services"&gt;&lt;/span&gt;&lt;/div&gt;</description>
      <Point>
        <coordinates>0.12650062433877,50.9356937125013</coordinates>
      </Point>
    </Placemark>
    <Placemark>
      <name>Framfield Turn (by request only)</name>
      <Snippet>6427</Snippet>
      <description>&lt;div class="stopInfoWindow-" data-stopid="6427"&gt;&lt;span class="naptancode"&gt;&lt;/span&gt;&lt;span class="services"&gt;&lt;/span&gt;&lt;/div&gt;</description>
      <Point>
        <coordinates>0.118746666666667,50.9479833333333</coordinates>
      </Point>
    </Placemark>
    <Placemark>
      <name>Boarding Kennels (by request only)</name>
      <Snippet>6428</Snippet>
      <description>&lt;div class="stopInfoWindow-" data-stopid="6428"&gt;&lt;span class="naptancode"&gt;&lt;/span&gt;&lt;span class="services"&gt;&lt;/span&gt;&lt;/div&gt;</description>
      <Point>
        <coordinates>0.117448720898086,50.9432109009101</coordinates>
      </Point>
    </Placemark>
    <Placemark>
      <name>New Steine</name>
      <Snippet>6429</Snippet>
      <description>&lt;div class="stopInfoWindow-bridpta" data-stopid="6429"&gt;&lt;span class="naptancode"&gt;bridpta&lt;/span&gt;&lt;span class="services"&gt;&lt;/span&gt;&lt;/div&gt;</description>
      <Point>
        <coordinates>-0.132072117724957,50.8192646637774</coordinates>
      </Point>
    </Placemark>
    <Placemark>
      <name>Bedford Street</name>
      <Snippet>6430</Snippet>
      <description>&lt;div class="stopInfoWindow-briadwm" data-stopid="6430"&gt;&lt;span class="naptancode"&gt;briadwm&lt;/span&gt;&lt;span class="services"&gt;&lt;/span&gt;&lt;/div&gt;</description>
      <Point>
        <coordinates>-0.127753746032722,50.8184193850181</coordinates>
      </Point>
    </Placemark>
    <Placemark>
      <name>Burlington Street</name>
      <Snippet>6431</Snippet>
      <description>&lt;div class="stopInfoWindow-briajmw" data-stopid="6431"&gt;&lt;span class="naptancode"&gt;briajmw&lt;/span&gt;&lt;span class="services"&gt;&lt;/span&gt;&lt;/div&gt;</description>
      <Point>
        <coordinates>-0.124364003539085,50.817813873291</coordinates>
      </Point>
    </Placemark>
    <Placemark>
      <name>Paston Place</name>
      <Snippet>6432</Snippet>
      <description>&lt;div class="stopInfoWindow-bridtpd" data-stopid="6432"&gt;&lt;span class="naptancode"&gt;bridtpd&lt;/span&gt;&lt;span class="services"&gt;&lt;/span&gt;&lt;/div&gt;</description>
      <Point>
        <coordinates>-0.11999300122261,50.8169822692871</coordinates>
      </Point>
    </Placemark>
    <Placemark>
      <name>Eaton Place</name>
      <Snippet>6433</Snippet>
      <description>&lt;div class="stopInfoWindow-brijwgp" data-stopid="6433"&gt;&lt;span class="naptancode"&gt;brijwgp&lt;/span&gt;&lt;span class="services"&gt;&lt;/span&gt;&lt;/div&gt;</description>
      <Point>
        <coordinates>-0.116918333333338,50.8163466048334</coordinates>
      </Point>
    </Placemark>
    <Placemark>
      <name>Dukes Mound</name>
      <Snippet>6434</Snippet>
      <description>&lt;div class="stopInfoWindow-briatjg" data-stopid="6434"&gt;&lt;span class="naptancode"&gt;briatjg&lt;/span&gt;&lt;span class="services"&gt;&lt;/span&gt;&lt;/div&gt;</description>
      <Point>
        <coordinates>-0.114170104497275,50.8157590416987</coordinates>
      </Point>
    </Placemark>
    <Placemark>
      <name>Eaton Place</name>
      <Snippet>6435</Snippet>
      <description>&lt;div class="stopInfoWindow-brijwgt" data-stopid="6435"&gt;&lt;span class="naptancode"&gt;brijwgt&lt;/span&gt;&lt;span class="services"&gt;&lt;/span&gt;&lt;/div&gt;</description>
      <Point>
        <coordinates>-0.116559505462641,50.8173422344545</coordinates>
      </Point>
    </Placemark>
    <Placemark>
      <name>Arundel Terrace</name>
      <Snippet>6436</Snippet>
      <description>&lt;div class="stopInfoWindow-briadjm" data-stopid="6436"&gt;&lt;span class="naptancode"&gt;briadjm&lt;/span&gt;&lt;span class="services"&gt;&lt;/span&gt;&lt;/div&gt;</description>
      <Point>
        <coordinates>-0.110228022486374,50.8148594294876</coordinates>
      </Point>
    </Placemark>
    <Placemark>
      <name>Marine Gate</name>
      <Snippet>6437</Snippet>
      <description>&lt;div class="stopInfoWindow-bridmwp" data-stopid="6437"&gt;&lt;span class="naptancode"&gt;bridmwp&lt;/span&gt;&lt;span class="services"&gt;&lt;/span&gt;&lt;/div&gt;</description>
      <Point>
        <coordinates>-0.104041988093064,50.8146410421682</coordinates>
      </Point>
    </Placemark>
    <Placemark>
      <name>Roedean Cafe (stop suspended)</name>
      <Snippet>6438</Snippet>
      <description>&lt;div class="stopInfoWindow-brijada" data-stopid="6438"&gt;&lt;span class="naptancode"&gt;brijada&lt;/span&gt;&lt;span class="services"&gt;&lt;/span&gt;&lt;/div&gt;</description>
      <Point>
        <coordinates>-0.0944652855396333,50.8127861257423</coordinates>
      </Point>
    </Placemark>
    <Placemark>
      <name>Roedean School</name>
      <Snippet>6439</Snippet>
      <description>&lt;div class="stopInfoWindow-brijadw" data-stopid="6439"&gt;&lt;span class="naptancode"&gt;brijadw&lt;/span&gt;&lt;span class="services"&gt;&lt;/span&gt;&lt;/div&gt;</description>
      <Point>
        <coordinates>-0.0874706931220093,50.8111113811588</coordinates>
      </Point>
    </Placemark>
    <Placemark>
      <name>Greenways</name>
      <Snippet>6440</Snippet>
      <description>&lt;div class="stopInfoWindow-bridajt" data-stopid="6440"&gt;&lt;span class="naptancode"&gt;bridajt&lt;/span&gt;&lt;span class="services"&gt;&lt;/span&gt;&lt;/div&gt;</description>
      <Point>
        <coordinates>-0.0719795714314753,50.8067901644915</coordinates>
      </Point>
    </Placemark>
    <Placemark>
      <name>The Windmill</name>
      <Snippet>6441</Snippet>
      <description>&lt;div class="stopInfoWindow-brijmtd" data-stopid="6441"&gt;&lt;span class="naptancode"&gt;brijmtd&lt;/span&gt;&lt;span class="services"&gt;&lt;/span&gt;&lt;/div&gt;</description>
      <Point>
        <coordinates>-0.0628952751329148,50.8040719187926</coordinates>
      </Point>
    </Placemark>
    <Placemark>
      <name>Rottingdean White Horse</name>
      <Snippet>6442</Snippet>
      <description>&lt;div class="stopInfoWindow-brijagt" data-stopid="6442"&gt;&lt;span class="naptancode"&gt;brijagt&lt;/span&gt;&lt;span class="services"&gt;&lt;/span&gt;&lt;/div&gt;</description>
      <Point>
        <coordinates>-0.0581138990819463,50.8030988989053</coordinates>
      </Point>
    </Placemark>
    <Placemark>
      <name>Newlands Road</name>
      <Snippet>6443</Snippet>
      <description>&lt;div class="stopInfoWindow-bridptg" data-stopid="6443"&gt;&lt;span class="naptancode"&gt;bridptg&lt;/span&gt;&lt;span class="services"&gt;&lt;/span&gt;&lt;/div&gt;</description>
      <Point>
        <coordinates>-0.0548391283077732,50.8025909833077</coordinates>
      </Point>
    </Placemark>
    <Placemark>
      <name>Chailey Avenue</name>
      <Snippet>6444</Snippet>
      <description>&lt;div class="stopInfoWindow-briamda" data-stopid="6444"&gt;&lt;span class="naptancode"&gt;briamda&lt;/span&gt;&lt;span class="services"&gt;&lt;/span&gt;&lt;/div&gt;</description>
      <Point>
        <coordinates>-0.0520702777777778,50.8019477777778</coordinates>
      </Point>
    </Placemark>
    <Placemark>
      <name>Cranleigh Avenue</name>
      <Snippet>6445</Snippet>
      <description>&lt;div class="stopInfoWindow-briaptd" data-stopid="6445"&gt;&lt;span class="naptancode"&gt;briaptd&lt;/span&gt;&lt;span class="services"&gt;&lt;/span&gt;&lt;/div&gt;</description>
      <Point>
        <coordinates>-0.0486839880964562,50.801658731179</coordinates>
      </Point>
    </Placemark>
    <Placemark>
      <name>Chichester Drive West</name>
      <Snippet>6446</Snippet>
      <description>&lt;div class="stopInfoWindow-briamgd" data-stopid="6446"&gt;&lt;span class="naptancode"&gt;briamgd&lt;/span&gt;&lt;span class="services"&gt;&lt;/span&gt;&lt;/div&gt;</description>
      <Point>
        <coordinates>-0.0443581193685483,50.8009715645608</coordinates>
      </Point>
    </Placemark>
    <Placemark>
      <name>Longridge Avenue</name>
      <Snippet>6447</Snippet>
      <description>&lt;div class="stopInfoWindow-bridmjt" data-stopid="6447"&gt;&lt;span class="naptancode"&gt;bridmjt&lt;/span&gt;&lt;span class="services"&gt;&lt;/span&gt;&lt;/div&gt;</description>
      <Point>
        <coordinates>-0.0396559484100245,50.8002510488166</coordinates>
      </Point>
    </Placemark>
    <Placemark>
      <name>Bannings Vale</name>
      <Snippet>6448</Snippet>
      <description>&lt;div class="stopInfoWindow-esudgmwp" data-stopid="6448"&gt;&lt;span class="naptancode"&gt;esudgmwp&lt;/span&gt;&lt;span class="services"&gt;&lt;/span&gt;&lt;/div&gt;</description>
      <Point>
        <coordinates>-0.0344918482005507,50.7989141664427</coordinates>
      </Point>
    </Placemark>
    <Placemark>
      <name>Telscombe Tye</name>
      <Snippet>6449</Snippet>
      <description>&lt;div class="stopInfoWindow-esudgpad" data-stopid="6449"&gt;&lt;span class="naptancode"&gt;esudgpad&lt;/span&gt;&lt;span class="services"&gt;&lt;/span&gt;&lt;/div&gt;</description>
      <Point>
        <coordinates>-0.0297840026516294,50.7975224559561</coordinates>
      </Point>
    </Placemark>
    <Placemark>
      <name>Bramber House</name>
      <Snippet>6450</Snippet>
      <description>&lt;div class="stopInfoWindow-brijwgw" data-stopid="6450"&gt;&lt;span class="naptancode"&gt;brijwgw&lt;/span&gt;&lt;span class="services"&gt;&lt;/span&gt;&lt;/div&gt;</description>
      <Point>
        <coordinates>-0.0877641693115194,50.8679562570906</coordinates>
      </Point>
    </Placemark>
    <Placemark>
      <name>Park Village</name>
      <Snippet>6451</Snippet>
      <description>&lt;div class="stopInfoWindow-brijwja" data-stopid="6451"&gt;&lt;span class="naptancode"&gt;brijwja&lt;/span&gt;&lt;span class="services"&gt;&lt;/span&gt;&lt;/div&gt;</description>
      <Point>
        <coordinates>-0.0884827971458391,50.8700789422912</coordinates>
      </Point>
    </Placemark>
    <Placemark>
      <name>London Road Shops (stop S)</name>
      <Snippet>6452</Snippet>
      <description>&lt;div class="stopInfoWindow-brijdmg" data-stopid="6452"&gt;&lt;span class="naptancode"&gt;brijdmg&lt;/span&gt;&lt;span class="services"&gt;&lt;/span&gt;&lt;/div&gt;</description>
      <Point>
        <coordinates>-0.135834351181989,50.830275186873</coordinates>
      </Point>
    </Placemark>
    <Placemark>
      <name>Baker Street</name>
      <Snippet>6453</Snippet>
      <description>&lt;div class="stopInfoWindow-briapgd" data-stopid="6453"&gt;&lt;span class="naptancode"&gt;briapgd&lt;/span&gt;&lt;span class="services"&gt;&lt;/span&gt;&lt;/div&gt;</description>
      <Point>
        <coordinates>-0.136697247624389,50.8318188824326</coordinates>
      </Point>
    </Placemark>
    <Placemark>
      <name>Stanford Avenue</name>
      <Snippet>6454</Snippet>
      <description>&lt;div class="stopInfoWindow-brijwjd" data-stopid="6454"&gt;&lt;span class="naptancode"&gt;brijwjd&lt;/span&gt;&lt;span class="services"&gt;&lt;/span&gt;&lt;/div&gt;</description>
      <Point>
        <coordinates>-0.142365310846964,50.8369542046307</coordinates>
      </Point>
    </Placemark>
    <Placemark>
      <name>Springfield Road</name>
      <Snippet>6455</Snippet>
      <description>&lt;div class="stopInfoWindow-brijdpm" data-stopid="6455"&gt;&lt;span class="naptancode"&gt;brijdpm&lt;/span&gt;&lt;span class="services"&gt;&lt;/span&gt;&lt;/div&gt;</description>
      <Point>
        <coordinates>-0.140192191797894,50.8370421022564</coordinates>
      </Point>
    </Placemark>
    <Placemark>
      <name>Preston Circus (stop H)</name>
      <Snippet>6456</Snippet>
      <description>&lt;div class="stopInfoWindow-bridwgd" data-stopid="6456"&gt;&lt;span class="naptancode"&gt;bridwgd&lt;/span&gt;&lt;span class="services"&gt;&lt;/span&gt;&lt;/div&gt;</description>
      <Point>
        <coordinates>-0.138262082010898,50.8331945373877</coordinates>
      </Point>
    </Placemark>
    <Placemark>
      <name>Lovers Walk</name>
      <Snippet>6457</Snippet>
      <description>&lt;div class="stopInfoWindow-bridmpa" data-stopid="6457"&gt;&lt;span class="naptancode"&gt;bridmpa&lt;/span&gt;&lt;span class="services"&gt;&lt;/span&gt;&lt;/div&gt;</description>
      <Point>
        <coordinates>-0.146551666666667,50.8381983333333</coordinates>
      </Point>
    </Placemark>
    <Placemark>
      <name>Nestor Court</name>
      <Snippet>6458</Snippet>
      <description>&lt;div class="stopInfoWindow-bridpma" data-stopid="6458"&gt;&lt;span class="naptancode"&gt;bridpma&lt;/span&gt;&lt;span class="services"&gt;&lt;/span&gt;&lt;/div&gt;</description>
      <Point>
        <coordinates>-0.148553639650335,50.8392893086595</coordinates>
      </Point>
    </Placemark>
    <Placemark>
      <name>Preston Drove</name>
      <Snippet>6459</Snippet>
      <description>&lt;div class="stopInfoWindow-bridwgm" data-stopid="6459"&gt;&lt;span class="naptancode"&gt;bridwgm&lt;/span&gt;&lt;span class="services"&gt;&lt;/span&gt;&lt;/div&gt;</description>
      <Point>
        <coordinates>-0.150954689153036,50.8418325322976</coordinates>
      </Point>
    </Placemark>
    <Placemark>
      <name>Preston Manor</name>
      <Snippet>6460</Snippet>
      <description>&lt;div class="stopInfoWindow-bridwgp" data-stopid="6460"&gt;&lt;span class="naptancode"&gt;bridwgp&lt;/span&gt;&lt;span class="services"&gt;&lt;/span&gt;&lt;/div&gt;</description>
      <Point>
        <coordinates>-0.149352497355142,50.8434421457645</coordinates>
      </Point>
    </Placemark>
    <Placemark>
      <name>Harrington Road</name>
      <Snippet>6461</Snippet>
      <description>&lt;div class="stopInfoWindow-bridawa" data-stopid="6461"&gt;&lt;span class="naptancode"&gt;bridawa&lt;/span&gt;&lt;span class="services"&gt;&lt;/span&gt;&lt;/div&gt;</description>
      <Point>
        <coordinates>-0.151376666666667,50.8458375276454</coordinates>
      </Point>
    </Placemark>
    <Placemark>
      <name>Varndean Road</name>
      <Snippet>6462</Snippet>
      <description>&lt;div class="stopInfoWindow-brijpwp" data-stopid="6462"&gt;&lt;span class="naptancode"&gt;brijpwp&lt;/span&gt;&lt;span class="services"&gt;&lt;/span&gt;&lt;/div&gt;</description>
      <Point>
        <coordinates>-0.152554898147588,50.8484256434732</coordinates>
      </Point>
    </Placemark>
    <Placemark>
      <name>Boiler House Hill (stop suspended)</name>
      <Snippet>6463</Snippet>
      <description>&lt;div class="stopInfoWindow-brijwjg" data-stopid="6463"&gt;&lt;span class="naptancode"&gt;brijwjg&lt;/span&gt;&lt;span class="services"&gt;&lt;/span&gt;&lt;/div&gt;</description>
      <Point>
        <coordinates>-0.0866702347993842,50.866900445465</coordinates>
      </Point>
    </Placemark>
    <Placemark>
      <name>Cedars Gardens</name>
      <Snippet>6464</Snippet>
      <description>&lt;div class="stopInfoWindow-briamat" data-stopid="6464"&gt;&lt;span class="naptancode"&gt;briamat&lt;/span&gt;&lt;span class="services"&gt;&lt;/span&gt;&lt;/div&gt;</description>
      <Point>
        <coordinates>-0.152744271163936,50.8500244034868</coordinates>
      </Point>
    </Placemark>
    <Placemark>
      <name>Hastings Building</name>
      <Snippet>6465</Snippet>
      <description>&lt;div class="stopInfoWindow-brijwjm" data-stopid="6465"&gt;&lt;span class="naptancode"&gt;brijwjm&lt;/span&gt;&lt;span class="services"&gt;&lt;/span&gt;&lt;/div&gt;</description>
      <Point>
        <coordinates>-0.0847184434533199,50.8671305670925</coordinates>
      </Point>
    </Placemark>
    <Placemark>
      <name>Tongdean Lane</name>
      <Snippet>6466</Snippet>
      <description>&lt;div class="stopInfoWindow-brijmwp" data-stopid="6466"&gt;&lt;span class="naptancode"&gt;brijmwp&lt;/span&gt;&lt;span class="services"&gt;&lt;/span&gt;&lt;/div&gt;</description>
      <Point>
        <coordinates>-0.154007186508178,50.8522892935069</coordinates>
      </Point>
    </Placemark>
    <Placemark>
      <name>The Deneway</name>
      <Snippet>6467</Snippet>
      <description>&lt;div class="stopInfoWindow-brijmgd" data-stopid="6467"&gt;&lt;span class="naptancode"&gt;brijmgd&lt;/span&gt;&lt;span class="services"&gt;&lt;/span&gt;&lt;/div&gt;</description>
      <Point>
        <coordinates>-0.154257813491825,50.855581062084</coordinates>
      </Point>
    </Placemark>
    <Placemark>
      <name>Ridgeside Avenue</name>
      <Snippet>6468</Snippet>
      <description>&lt;div class="stopInfoWindow-bridwpm" data-stopid="6468"&gt;&lt;span class="naptancode"&gt;bridwpm&lt;/span&gt;&lt;span class="services"&gt;&lt;/span&gt;&lt;/div&gt;</description>
      <Point>
        <coordinates>-0.151774168014525,50.8593202665488</coordinates>
      </Point>
    </Placemark>
    <Placemark>
      <name>The Level</name>
      <Snippet>6469</Snippet>
      <description>&lt;div class="stopInfoWindow-brijmjt" data-stopid="6469"&gt;&lt;span class="naptancode"&gt;brijmjt&lt;/span&gt;&lt;span class="services"&gt;&lt;/span&gt;&lt;/div&gt;</description>
      <Point>
        <coordinates>-0.131967257936265,50.830376239789</coordinates>
      </Point>
    </Placemark>
    <Placemark>
      <name>Elm Grove</name>
      <Snippet>6470</Snippet>
      <description>&lt;div class="stopInfoWindow-briatpw" data-stopid="6470"&gt;&lt;span class="naptancode"&gt;briatpw&lt;/span&gt;&lt;span class="services"&gt;&lt;/span&gt;&lt;/div&gt;</description>
      <Point>
        <coordinates>-0.128995382275043,50.8325825157311</coordinates>
      </Point>
    </Placemark>
    <Placemark>
      <name>St Pauls Street</name>
      <Snippet>6471</Snippet>
      <description>&lt;div class="stopInfoWindow-brijgdt" data-stopid="6471"&gt;&lt;span class="naptancode"&gt;brijgdt&lt;/span&gt;&lt;span class="services"&gt;&lt;/span&gt;&lt;/div&gt;</description>
      <Point>
        <coordinates>-0.12742975793627,50.8338012882662</coordinates>
      </Point>
    </Placemark>
    <Placemark>
      <name>Melbourne Street</name>
      <Snippet>6472</Snippet>
      <description>&lt;div class="stopInfoWindow-bridpda" data-stopid="6472"&gt;&lt;span class="naptancode"&gt;bridpda&lt;/span&gt;&lt;span class="services"&gt;&lt;/span&gt;&lt;/div&gt;</description>
      <Point>
        <coordinates>-0.125432777777778,50.835865</coordinates>
      </Point>
    </Placemark>
    <Placemark>
      <name>Lewes Road Bus Garage</name>
      <Snippet>6473</Snippet>
      <description>&lt;div class="stopInfoWindow-bridmaw" data-stopid="6473"&gt;&lt;span class="naptancode"&gt;bridmaw&lt;/span&gt;&lt;span class="services"&gt;&lt;/span&gt;&lt;/div&gt;</description>
      <Point>
        <coordinates>-0.123674713075157,50.838207244873</coordinates>
      </Point>
    </Placemark>
    <Placemark>
      <name>Coombe Road</name>
      <Snippet>6474</Snippet>
      <description>&lt;div class="stopInfoWindow-briapdp" data-stopid="6474"&gt;&lt;span class="naptancode"&gt;briapdp&lt;/span&gt;&lt;span class="services"&gt;&lt;/span&gt;&lt;/div&gt;</description>
      <Point>
        <coordinates>-0.121318649470004,50.8410432250193</coordinates>
      </Point>
    </Placemark>
    <Placemark>
      <name>Natal Road</name>
      <Snippet>6475</Snippet>
      <description>&lt;div class="stopInfoWindow-bridpjt" data-stopid="6475"&gt;&lt;span class="naptancode"&gt;bridpjt&lt;/span&gt;&lt;span class="services"&gt;&lt;/span&gt;&lt;/div&gt;</description>
      <Point>
        <coordinates>-0.119681666666667,50.8429483333333</coordinates>
      </Point>
    </Placemark>
    <Placemark>
      <name>Brighton University</name>
      <Snippet>6476</Snippet>
      <description>&lt;div class="stopInfoWindow-brijmam" data-stopid="6476"&gt;&lt;span class="naptancode"&gt;brijmam&lt;/span&gt;&lt;span class="services"&gt;&lt;/span&gt;&lt;/div&gt;</description>
      <Point>
        <coordinates>-0.116814352571957,50.845300871726</coordinates>
      </Point>
    </Placemark>
    <Placemark>
      <name>Bates Estate</name>
      <Snippet>6477</Snippet>
      <description>&lt;div class="stopInfoWindow-briadpg" data-stopid="6477"&gt;&lt;span class="naptancode"&gt;briadpg&lt;/span&gt;&lt;span class="services"&gt;&lt;/span&gt;&lt;/div&gt;</description>
      <Point>
        <coordinates>-0.111606666666667,50.8487533333333</coordinates>
      </Point>
    </Placemark>
    <Placemark>
      <name>Moulsecoomb Way</name>
      <Snippet>6478</Snippet>
      <description>&lt;div class="stopInfoWindow-bridpjg" data-stopid="6478"&gt;&lt;span class="naptancode"&gt;bridpjg&lt;/span&gt;&lt;span class="services"&gt;&lt;/span&gt;&lt;/div&gt;</description>
      <Point>
        <coordinates>-0.110616666666667,50.8500258333333</coordinates>
      </Point>
    </Placemark>
    <Placemark>
      <name>Ringmer Road</name>
      <Snippet>6479</Snippet>
      <description>&lt;div class="stopInfoWindow-bridwta" data-stopid="6479"&gt;&lt;span class="naptancode"&gt;bridwta&lt;/span&gt;&lt;span class="services"&gt;&lt;/span&gt;&lt;/div&gt;</description>
      <Point>
        <coordinates>-0.109114271163946,50.8538308516928</coordinates>
      </Point>
    </Placemark>
    <Placemark>
      <name>Wild Park</name>
      <Snippet>6480</Snippet>
      <description>&lt;div class="stopInfoWindow-brijtpj" data-stopid="6480"&gt;&lt;span class="naptancode"&gt;brijtpj&lt;/span&gt;&lt;span class="services"&gt;&lt;/span&gt;&lt;/div&gt;</description>
      <Point>
        <coordinates>-0.10763,50.8559583333333</coordinates>
      </Point>
    </Placemark>
    <Placemark>
      <name>Coldean Lane</name>
      <Snippet>6481</Snippet>
      <description>&lt;div class="stopInfoWindow-briamwm" data-stopid="6481"&gt;&lt;span class="naptancode"&gt;briamwm&lt;/span&gt;&lt;span class="services"&gt;&lt;/span&gt;&lt;/div&gt;</description>
      <Point>
        <coordinates>-0.104838817460793,50.8571457530491</coordinates>
      </Point>
    </Placemark>
    <Placemark>
      <name>Falmer School</name>
      <Snippet>6482</Snippet>
      <description>&lt;div class="stopInfoWindow-brijwjp" data-stopid="6482"&gt;&lt;span class="naptancode"&gt;brijwjp&lt;/span&gt;&lt;span class="services"&gt;&lt;/span&gt;&lt;/div&gt;</description>
      <Point>
        <coordinates>-0.0964643731713255,50.8589574002902</coordinates>
      </Point>
    </Placemark>
    <Placemark>
      <name>Falmer Station</name>
      <Snippet>6483</Snippet>
      <description>&lt;div class="stopInfoWindow-brimjtp" data-stopid="6483"&gt;&lt;span class="naptancode"&gt;brimjtp&lt;/span&gt;&lt;span class="services"&gt;&lt;/span&gt;&lt;/div&gt;</description>
      <Point>
        <coordinates>-0.0882061878289075,50.8624151347196</coordinates>
      </Point>
    </Placemark>
    <Placemark>
      <name>Falmer Swan</name>
      <Snippet>6484</Snippet>
      <description>&lt;div class="stopInfoWindow-brimgtw" data-stopid="6484"&gt;&lt;span class="naptancode"&gt;brimgtw&lt;/span&gt;&lt;span class="services"&gt;&lt;/span&gt;&lt;/div&gt;</description>
      <Point>
        <coordinates>-0.0793842605845096,50.8633589119004</coordinates>
      </Point>
    </Placemark>
    <Placemark>
      <name>Science Park Road</name>
      <Snippet>6485</Snippet>
      <description>&lt;div class="stopInfoWindow-brimjpg" data-stopid="6485"&gt;&lt;span class="naptancode"&gt;brimjpg&lt;/span&gt;&lt;span class="services"&gt;&lt;/span&gt;&lt;/div&gt;</description>
      <Point>
        <coordinates>-0.082489274442199,50.8662604353201</coordinates>
      </Point>
    </Placemark>
    <Placemark>
      <name>Falmer Village</name>
      <Snippet>6486</Snippet>
      <description>&lt;div class="stopInfoWindow-esuamwmd" data-stopid="6486"&gt;&lt;span class="naptancode"&gt;esuamwmd&lt;/span&gt;&lt;span class="services"&gt;&lt;/span&gt;&lt;/div&gt;</description>
      <Point>
        <coordinates>-0.0806237513224373,50.8641525986472</coordinates>
      </Point>
    </Placemark>
    <Placemark>
      <name>Clarence Square</name>
      <Snippet>6487</Snippet>
      <description>&lt;div class="stopInfoWindow-brijwmd" data-stopid="6487"&gt;&lt;span class="naptancode"&gt;brijwmd&lt;/span&gt;&lt;span class="services"&gt;&lt;/span&gt;&lt;/div&gt;</description>
      <Point>
        <coordinates>-0.147713005542751,50.8241268287035</coordinates>
      </Point>
    </Placemark>
    <Placemark>
      <name>Brighton Centre</name>
      <Snippet>6488</Snippet>
      <description>&lt;div class="stopInfoWindow-briamta" data-stopid="6488"&gt;&lt;span class="naptancode"&gt;briamta&lt;/span&gt;&lt;span class="services"&gt;&lt;/span&gt;&lt;/div&gt;</description>
      <Point>
        <coordinates>-0.145890000000009,50.8209193344974</coordinates>
      </Point>
    </Placemark>
    <Placemark>
      <name>Portland Street</name>
      <Snippet>6490</Snippet>
      <description>&lt;div class="stopInfoWindow-brijtgm" data-stopid="6490"&gt;&lt;span class="naptancode"&gt;brijtgm&lt;/span&gt;&lt;span class="services"&gt;&lt;/span&gt;&lt;/div&gt;</description>
      <Point>
        <coordinates>-0.142395965610072,50.8235167178436</coordinates>
      </Point>
    </Placemark>
    <Placemark>
      <name>North Road</name>
      <Snippet>6491</Snippet>
      <description>&lt;div class="stopInfoWindow-briamwd" data-stopid="6491"&gt;&lt;span class="naptancode"&gt;briamwd&lt;/span&gt;&lt;span class="services"&gt;&lt;/span&gt;&lt;/div&gt;</description>
      <Point>
        <coordinates>-0.141873419284821,50.8266872230275</coordinates>
      </Point>
    </Placemark>
    <Placemark>
      <name>Cissbury Crescent</name>
      <Snippet>6492</Snippet>
      <description>&lt;div class="stopInfoWindow-esudgmwd" data-stopid="6492"&gt;&lt;span class="naptancode"&gt;esudgmwd&lt;/span&gt;&lt;span class="services"&gt;&lt;/span&gt;&lt;/div&gt;</description>
      <Point>
        <coordinates>-0.0283489823341343,50.8008910276362</coordinates>
      </Point>
    </Placemark>
    <Placemark>
      <name>Grand Ocean</name>
      <Snippet>6493</Snippet>
      <description>&lt;div class="stopInfoWindow-bridptp" data-stopid="6493"&gt;&lt;span class="naptancode"&gt;bridptp&lt;/span&gt;&lt;span class="services"&gt;&lt;/span&gt;&lt;/div&gt;</description>
      <Point>
        <coordinates>-0.0349682718515409,50.802029085072</coordinates>
      </Point>
    </Placemark>
    <Placemark>
      <name>Longridge Avenue Post Office</name>
      <Snippet>6494</Snippet>
      <description>&lt;div class="stopInfoWindow-bridtaj" data-stopid="6494"&gt;&lt;span class="naptancode"&gt;bridtaj&lt;/span&gt;&lt;span class="services"&gt;&lt;/span&gt;&lt;/div&gt;</description>
      <Point>
        <coordinates>-0.0367168970406073,50.8010041996464</coordinates>
      </Point>
    </Placemark>
    <Placemark>
      <name>Grand Ocean</name>
      <Snippet>6495</Snippet>
      <description>&lt;div class="stopInfoWindow-brimpda" data-stopid="6495"&gt;&lt;span class="naptancode"&gt;brimpda&lt;/span&gt;&lt;span class="services"&gt;&lt;/span&gt;&lt;/div&gt;</description>
      <Point>
        <coordinates>-0.0349576435983234,50.8024118332606</coordinates>
      </Point>
    </Placemark>
    <Placemark>
      <name>Bannings Vale</name>
      <Snippet>6496</Snippet>
      <description>&lt;div class="stopInfoWindow-esudgmtp" data-stopid="6496"&gt;&lt;span class="naptancode"&gt;esudgmtp&lt;/span&gt;&lt;span class="services"&gt;&lt;/span&gt;&lt;/div&gt;</description>
      <Point>
        <coordinates>-0.0225641690194656,50.8062146307776</coordinates>
      </Point>
    </Placemark>
    <Placemark>
      <name>Bevendean Avenue</name>
      <Snippet>6497</Snippet>
      <description>&lt;div class="stopInfoWindow-esudgmtw" data-stopid="6497"&gt;&lt;span class="naptancode"&gt;esudgmtw&lt;/span&gt;&lt;span class="services"&gt;&lt;/span&gt;&lt;/div&gt;</description>
      <Point>
        <coordinates>-0.0246214576721204,50.8030008291653</coordinates>
      </Point>
    </Placemark>
    <Placemark>
      <name>Oaklands Avenue</name>
      <Snippet>6498</Snippet>
      <description>&lt;div class="stopInfoWindow-esudgmwa" data-stopid="6498"&gt;&lt;span class="naptancode"&gt;esudgmwa&lt;/span&gt;&lt;span class="services"&gt;&lt;/span&gt;&lt;/div&gt;</description>
      <Point>
        <coordinates>-0.0284831296285071,50.802906211273</coordinates>
      </Point>
    </Placemark>
    <Placemark>
      <name>Martlet House</name>
      <Snippet>6499</Snippet>
      <description>&lt;div class="stopInfoWindow-esudgmwg" data-stopid="6499"&gt;&lt;span class="naptancode"&gt;esudgmwg&lt;/span&gt;&lt;span class="services"&gt;&lt;/span&gt;&lt;/div&gt;</description>
      <Point>
        <coordinates>-0.0334368492126402,50.7992779413755</coordinates>
      </Point>
    </Placemark>
    <Placemark>
      <name>Brunswick Place</name>
      <Snippet>6500</Snippet>
      <description>&lt;div class="stopInfoWindow-brijwmg" data-stopid="6500"&gt;&lt;span class="naptancode"&gt;brijwmg&lt;/span&gt;&lt;span class="services"&gt;&lt;/span&gt;&lt;/div&gt;</description>
      <Point>
        <coordinates>-0.159781037038167,50.825862664304</coordinates>
      </Point>
    </Placemark>
    <Placemark>
      <name>St Anns Well Gardens</name>
      <Snippet>6501</Snippet>
      <description>&lt;div class="stopInfoWindow-briajmg" data-stopid="6501"&gt;&lt;span class="naptancode"&gt;briajmg&lt;/span&gt;&lt;span class="services"&gt;&lt;/span&gt;&lt;/div&gt;</description>
      <Point>
        <coordinates>-0.15715716779233,50.8282972850046</coordinates>
      </Point>
    </Placemark>
    <Placemark>
      <name>Furze Croft</name>
      <Snippet>6502</Snippet>
      <description>&lt;div class="stopInfoWindow-brijdta" data-stopid="6502"&gt;&lt;span class="naptancode"&gt;brijdta&lt;/span&gt;&lt;span class="services"&gt;&lt;/span&gt;&lt;/div&gt;</description>
      <Point>
        <coordinates>-0.157939398150977,50.8278272444758</coordinates>
      </Point>
    </Placemark>
    <Placemark>
      <name>Top of Furze Hill</name>
      <Snippet>6503</Snippet>
      <description>&lt;div class="stopInfoWindow-briawpd" data-stopid="6503"&gt;&lt;span class="naptancode"&gt;briawpd&lt;/span&gt;&lt;span class="services"&gt;&lt;/span&gt;&lt;/div&gt;</description>
      <Point>
        <coordinates>-0.154244765639306,50.8286814093196</coordinates>
      </Point>
    </Placemark>
    <Placemark>
      <name>George Street</name>
      <Snippet>6504</Snippet>
      <description>&lt;div class="stopInfoWindow-brijwmj" data-stopid="6504"&gt;&lt;span class="naptancode"&gt;brijwmj&lt;/span&gt;&lt;span class="services"&gt;&lt;/span&gt;&lt;/div&gt;</description>
      <Point>
        <coordinates>-0.174889444444444,50.8283041666667</coordinates>
      </Point>
    </Placemark>
    <Placemark>
      <name>Babylon Lounge</name>
      <Snippet>6505</Snippet>
      <description>&lt;div class="stopInfoWindow-brijtjg" data-stopid="6505"&gt;&lt;span class="naptancode"&gt;brijtjg&lt;/span&gt;&lt;span class="services"&gt;&lt;/span&gt;&lt;/div&gt;</description>
      <Point>
        <coordinates>-0.189067006111145,50.8263320922852</coordinates>
      </Point>
    </Placemark>
    <Placemark>
      <name>Park Royal</name>
      <Snippet>6506</Snippet>
      <description>&lt;div class="stopInfoWindow-brijaga" data-stopid="6506"&gt;&lt;span class="naptancode"&gt;brijaga&lt;/span&gt;&lt;span class="services"&gt;&lt;/span&gt;&lt;/div&gt;</description>
      <Point>
        <coordinates>-0.151458960316981,50.8269260540635</coordinates>
      </Point>
    </Placemark>
    <Placemark>
      <name>Station Road</name>
      <Snippet>6507</Snippet>
      <description>&lt;div class="stopInfoWindow-brijdwd" data-stopid="6507"&gt;&lt;span class="naptancode"&gt;brijdwd&lt;/span&gt;&lt;span class="services"&gt;&lt;/span&gt;&lt;/div&gt;</description>
      <Point>
        <coordinates>-0.20942674577237,50.8298228982621</coordinates>
      </Point>
    </Placemark>
    <Placemark>
      <name>Compton Avenue</name>
      <Snippet>6508</Snippet>
      <description>&lt;div class="stopInfoWindow-briagwa" data-stopid="6508"&gt;&lt;span class="naptancode"&gt;briagwa&lt;/span&gt;&lt;span class="services"&gt;&lt;/span&gt;&lt;/div&gt;</description>
      <Point>
        <coordinates>-0.143865,50.8308944444444</coordinates>
      </Point>
    </Placemark>
    <Placemark>
      <name>Seven Dials</name>
      <Snippet>6509</Snippet>
      <description>&lt;div class="stopInfoWindow-briapaw" data-stopid="6509"&gt;&lt;span class="naptancode"&gt;briapaw&lt;/span&gt;&lt;span class="services"&gt;&lt;/span&gt;&lt;/div&gt;</description>
      <Point>
        <coordinates>-0.146568919313217,50.8309347155897</coordinates>
      </Point>
    </Placemark>
    <Placemark>
      <name>Seven Dials Dyke Road</name>
      <Snippet>6510</Snippet>
      <description>&lt;div class="stopInfoWindow-brijdag" data-stopid="6510"&gt;&lt;span class="naptancode"&gt;brijdag&lt;/span&gt;&lt;span class="services"&gt;&lt;/span&gt;&lt;/div&gt;</description>
      <Point>
        <coordinates>-0.147713646292684,50.8315259560679</coordinates>
      </Point>
    </Placemark>
    <Placemark>
      <name>BHASVIC</name>
      <Snippet>6511</Snippet>
      <description>&lt;div class="stopInfoWindow-brijdap" data-stopid="6511"&gt;&lt;span class="naptancode"&gt;brijdap&lt;/span&gt;&lt;span class="services"&gt;&lt;/span&gt;&lt;/div&gt;</description>
      <Point>
        <coordinates>-0.149672222222222,50.8331902777778</coordinates>
      </Point>
    </Placemark>
    <Placemark>
      <name>Montefiore Road</name>
      <Snippet>6512</Snippet>
      <description>&lt;div class="stopInfoWindow-briagdw" data-stopid="6512"&gt;&lt;span class="naptancode"&gt;briagdw&lt;/span&gt;&lt;span class="services"&gt;&lt;/span&gt;&lt;/div&gt;</description>
      <Point>
        <coordinates>-0.154558165342535,50.8344169853554</coordinates>
      </Point>
    </Placemark>
    <Placemark>
      <name>Silverdale Road</name>
      <Snippet>6513</Snippet>
      <description>&lt;div class="stopInfoWindow-bridpgw" data-stopid="6513"&gt;&lt;span class="naptancode"&gt;bridpgw&lt;/span&gt;&lt;span class="services"&gt;&lt;/span&gt;&lt;/div&gt;</description>
      <Point>
        <coordinates>-0.156756875661208,50.8347869256114</coordinates>
      </Point>
    </Placemark>
    <Placemark>
      <name>Upper Drive</name>
      <Snippet>6514</Snippet>
      <description>&lt;div class="stopInfoWindow-brijdjm" data-stopid="6514"&gt;&lt;span class="naptancode"&gt;brijdjm&lt;/span&gt;&lt;span class="services"&gt;&lt;/span&gt;&lt;/div&gt;</description>
      <Point>
        <coordinates>-0.16088894973755,50.8358952864633</coordinates>
      </Point>
    </Placemark>
    <Placemark>
      <name>The Drive</name>
      <Snippet>6515</Snippet>
      <description>&lt;div class="stopInfoWindow-brijpmd" data-stopid="6515"&gt;&lt;span class="naptancode"&gt;brijpmd&lt;/span&gt;&lt;span class="services"&gt;&lt;/span&gt;&lt;/div&gt;</description>
      <Point>
        <coordinates>-0.16548406216939,50.8373210285527</coordinates>
      </Point>
    </Placemark>
    <Placemark>
      <name>Hove Park Villas</name>
      <Snippet>6516</Snippet>
      <description>&lt;div class="stopInfoWindow-brijmgm" data-stopid="6516"&gt;&lt;span class="naptancode"&gt;brijmgm&lt;/span&gt;&lt;span class="services"&gt;&lt;/span&gt;&lt;/div&gt;</description>
      <Point>
        <coordinates>-0.169147222222222,50.8383155555556</coordinates>
      </Point>
    </Placemark>
    <Placemark>
      <name>Hove Park</name>
      <Snippet>6517</Snippet>
      <description>&lt;div class="stopInfoWindow-bridjap" data-stopid="6517"&gt;&lt;span class="naptancode"&gt;bridjap&lt;/span&gt;&lt;span class="services"&gt;&lt;/span&gt;&lt;/div&gt;</description>
      <Point>
        <coordinates>-0.173044166666667,50.8389972222222</coordinates>
      </Point>
    </Placemark>
    <Placemark>
      <name>Hove Park Tavern</name>
      <Snippet>6518</Snippet>
      <description>&lt;div class="stopInfoWindow-bridgwp" data-stopid="6518"&gt;&lt;span class="naptancode"&gt;bridgwp&lt;/span&gt;&lt;span class="services"&gt;&lt;/span&gt;&lt;/div&gt;</description>
      <Point>
        <coordinates>-0.176633746032706,50.8390126566676</coordinates>
      </Point>
    </Placemark>
    <Placemark>
      <name>Aldrington Avenue</name>
      <Snippet>6519</Snippet>
      <description>&lt;div class="stopInfoWindow-bridjam" data-stopid="6519"&gt;&lt;span class="naptancode"&gt;bridjam&lt;/span&gt;&lt;span class="services"&gt;&lt;/span&gt;&lt;/div&gt;</description>
      <Point>
        <coordinates>-0.183069363236434,50.8390489829411</coordinates>
      </Point>
    </Placemark>
    <Placemark>
      <name>Amherst Crescent</name>
      <Snippet>6520</Snippet>
      <description>&lt;div class="stopInfoWindow-briadga" data-stopid="6520"&gt;&lt;span class="naptancode"&gt;briadga&lt;/span&gt;&lt;span class="services"&gt;&lt;/span&gt;&lt;/div&gt;</description>
      <Point>
        <coordinates>-0.187211666666667,50.8388072222222</coordinates>
      </Point>
    </Placemark>
    <Placemark>
      <name>English Close</name>
      <Snippet>6521</Snippet>
      <description>&lt;div class="stopInfoWindow-briadgj" data-stopid="6521"&gt;&lt;span class="naptancode"&gt;briadgj&lt;/span&gt;&lt;span class="services"&gt;&lt;/span&gt;&lt;/div&gt;</description>
      <Point>
        <coordinates>-0.190280242063741,50.8383508093261</coordinates>
      </Point>
    </Placemark>
    <Placemark>
      <name>Hove Cemetery</name>
      <Snippet>6522</Snippet>
      <description>&lt;div class="stopInfoWindow-briatwg" data-stopid="6522"&gt;&lt;span class="naptancode"&gt;briatwg&lt;/span&gt;&lt;span class="services"&gt;&lt;/span&gt;&lt;/div&gt;</description>
      <Point>
        <coordinates>-0.196576355819695,50.838499577226</coordinates>
      </Point>
    </Placemark>
    <Placemark>
      <name>Stapley Road</name>
      <Snippet>6523</Snippet>
      <description>&lt;div class="stopInfoWindow-bridgwd" data-stopid="6523"&gt;&lt;span class="naptancode"&gt;bridgwd&lt;/span&gt;&lt;span class="services"&gt;&lt;/span&gt;&lt;/div&gt;</description>
      <Point>
        <coordinates>-0.200158888888889,50.8381813888889</coordinates>
      </Point>
    </Placemark>
    <Placemark>
      <name>Benfield Way</name>
      <Snippet>6524</Snippet>
      <description>&lt;div class="stopInfoWindow-brijgpd" data-stopid="6524"&gt;&lt;span class="naptancode"&gt;brijgpd&lt;/span&gt;&lt;span class="services"&gt;&lt;/span&gt;&lt;/div&gt;</description>
      <Point>
        <coordinates>-0.209197708994546,50.8382741427707</coordinates>
      </Point>
    </Placemark>
    <Placemark>
      <name>Romany Close</name>
      <Snippet>6525</Snippet>
      <description>&lt;div class="stopInfoWindow-briagag" data-stopid="6525"&gt;&lt;span class="naptancode"&gt;briagag&lt;/span&gt;&lt;span class="services"&gt;&lt;/span&gt;&lt;/div&gt;</description>
      <Point>
        <coordinates>-0.213475107142125,50.8387256396654</coordinates>
      </Point>
    </Placemark>
    <Placemark>
      <name>Southern Cross</name>
      <Snippet>6526</Snippet>
      <description>&lt;div class="stopInfoWindow-briawgt" data-stopid="6526"&gt;&lt;span class="naptancode"&gt;briawgt&lt;/span&gt;&lt;span class="services"&gt;&lt;/span&gt;&lt;/div&gt;</description>
      <Point>
        <coordinates>-0.218372329364349,50.8387232483319</coordinates>
      </Point>
    </Placemark>
    <Placemark>
      <name>Applesham Way</name>
      <Snippet>6527</Snippet>
      <description>&lt;div class="stopInfoWindow-brijdpa" data-stopid="6527"&gt;&lt;span class="naptancode"&gt;brijdpa&lt;/span&gt;&lt;span class="services"&gt;&lt;/span&gt;&lt;/div&gt;</description>
      <Point>
        <coordinates>-0.223224601855816,50.8391950353612</coordinates>
      </Point>
    </Placemark>
    <Placemark>
      <name>Hadrian Avenue</name>
      <Snippet>6528</Snippet>
      <description>&lt;div class="stopInfoWindow-wsxadpjm" data-stopid="6528"&gt;&lt;span class="naptancode"&gt;wsxadpjm&lt;/span&gt;&lt;span class="services"&gt;&lt;/span&gt;&lt;/div&gt;</description>
      <Point>
        <coordinates>-0.226548746032715,50.8393789719552</coordinates>
      </Point>
    </Placemark>
    <Placemark>
      <name>The Windmill</name>
      <Snippet>6529</Snippet>
      <description>&lt;div class="stopInfoWindow-wsxadpja" data-stopid="6529"&gt;&lt;span class="naptancode"&gt;wsxadpja&lt;/span&gt;&lt;span class="services"&gt;&lt;/span&gt;&lt;/div&gt;</description>
      <Point>
        <coordinates>-0.23209938095093,50.8400893968675</coordinates>
      </Point>
    </Placemark>
    <Placemark>
      <name>St Theresas Church</name>
      <Snippet>6530</Snippet>
      <description>&lt;div class="stopInfoWindow-wsxadpjd" data-stopid="6530"&gt;&lt;span class="naptancode"&gt;wsxadpjd&lt;/span&gt;&lt;span class="services"&gt;&lt;/span&gt;&lt;/div&gt;</description>
      <Point>
        <coordinates>-0.238021001219749,50.8408508300781</coordinates>
      </Point>
    </Placemark>
    <Placemark>
      <name>Kingston Lane</name>
      <Snippet>6531</Snippet>
      <description>&lt;div class="stopInfoWindow-wsxadpjg" data-stopid="6531"&gt;&lt;span class="naptancode"&gt;wsxadpjg&lt;/span&gt;&lt;span class="services"&gt;&lt;/span&gt;&lt;/div&gt;</description>
      <Point>
        <coordinates>-0.242114582010906,50.8412485547803</coordinates>
      </Point>
    </Placemark>
    <Placemark>
      <name>Southwick Square</name>
      <Snippet>6532</Snippet>
      <description>&lt;div class="stopInfoWindow-wsxadtda" data-stopid="6532"&gt;&lt;span class="naptancode"&gt;wsxadtda&lt;/span&gt;&lt;span class="services"&gt;&lt;/span&gt;&lt;/div&gt;</description>
      <Point>
        <coordinates>-0.235591460316984,50.8341322993668</coordinates>
      </Point>
    </Placemark>
    <Placemark>
      <name>Southwick Green</name>
      <Snippet>6533</Snippet>
      <description>&lt;div class="stopInfoWindow-wsxadtgp" data-stopid="6533"&gt;&lt;span class="naptancode"&gt;wsxadtgp&lt;/span&gt;&lt;span class="services"&gt;&lt;/span&gt;&lt;/div&gt;</description>
      <Point>
        <coordinates>-0.239061424602931,50.8327780796149</coordinates>
      </Point>
    </Placemark>
    <Placemark>
      <name>Rectory Road</name>
      <Snippet>6534</Snippet>
      <description>&lt;div class="stopInfoWindow-wsxadtmp" data-stopid="6534"&gt;&lt;span class="naptancode"&gt;wsxadtmp&lt;/span&gt;&lt;span class="services"&gt;&lt;/span&gt;&lt;/div&gt;</description>
      <Point>
        <coordinates>-0.245243228836058,50.8342758062338</coordinates>
      </Point>
    </Placemark>
    <Placemark>
      <name>St Julians Close</name>
      <Snippet>6535</Snippet>
      <description>&lt;div class="stopInfoWindow-wsxadtmj" data-stopid="6535"&gt;&lt;span class="naptancode"&gt;wsxadtmj&lt;/span&gt;&lt;span class="services"&gt;&lt;/span&gt;&lt;/div&gt;</description>
      <Point>
        <coordinates>-0.249359166666667,50.8351202777778</coordinates>
      </Point>
    </Placemark>
    <Placemark>
      <name>Clarendon Road</name>
      <Snippet>6536</Snippet>
      <description>&lt;div class="stopInfoWindow-wsxdpwdt" data-stopid="6536"&gt;&lt;span class="naptancode"&gt;wsxdpwdt&lt;/span&gt;&lt;span class="services"&gt;&lt;/span&gt;&lt;/div&gt;</description>
      <Point>
        <coordinates>-0.248897895216944,50.837458765989</coordinates>
      </Point>
    </Placemark>
    <Placemark>
      <name>Royal George</name>
      <Snippet>6537</Snippet>
      <description>&lt;div class="stopInfoWindow-wsxadpgp" data-stopid="6537"&gt;&lt;span class="naptancode"&gt;wsxadpgp&lt;/span&gt;&lt;span class="services"&gt;&lt;/span&gt;&lt;/div&gt;</description>
      <Point>
        <coordinates>-0.251421562169398,50.8415895852679</coordinates>
      </Point>
    </Placemark>
    <Placemark>
      <name>Southlands Hospital</name>
      <Snippet>6538</Snippet>
      <description>&lt;div class="stopInfoWindow-wsxadpgj" data-stopid="6538"&gt;&lt;span class="naptancode"&gt;wsxadpgj&lt;/span&gt;&lt;span class="services"&gt;&lt;/span&gt;&lt;/div&gt;</description>
      <Point>
        <coordinates>-0.25457900762558,50.8418502807617</coordinates>
      </Point>
    </Placemark>
    <Placemark>
      <name>Wilmot Road</name>
      <Snippet>6539</Snippet>
      <description>&lt;div class="stopInfoWindow-wsxadtpw" data-stopid="6539"&gt;&lt;span class="naptancode"&gt;wsxadtpw&lt;/span&gt;&lt;span class="services"&gt;&lt;/span&gt;&lt;/div&gt;</description>
      <Point>
        <coordinates>-0.255892667990798,50.8388275</coordinates>
      </Point>
    </Placemark>
    <Placemark>
      <name>Middle Road</name>
      <Snippet>6540</Snippet>
      <description>&lt;div class="stopInfoWindow-wsxadtwa" data-stopid="6540"&gt;&lt;span class="naptancode"&gt;wsxadtwa&lt;/span&gt;&lt;span class="services"&gt;&lt;/span&gt;&lt;/div&gt;</description>
      <Point>
        <coordinates>-0.256230950355538,50.835942037891</coordinates>
      </Point>
    </Placemark>
    <Placemark>
      <name>Crown Road</name>
      <Snippet>6541</Snippet>
      <description>&lt;div class="stopInfoWindow-wsxadtwt" data-stopid="6541"&gt;&lt;span class="naptancode"&gt;wsxadtwt&lt;/span&gt;&lt;span class="services"&gt;&lt;/span&gt;&lt;/div&gt;</description>
      <Point>
        <coordinates>-0.259579958996246,50.8361460305998</coordinates>
      </Point>
    </Placemark>
    <Placemark>
      <name>Sullington Way</name>
      <Snippet>6542</Snippet>
      <description>&lt;div class="stopInfoWindow-wsxadwad" data-stopid="6542"&gt;&lt;span class="naptancode"&gt;wsxadwad&lt;/span&gt;&lt;span class="services"&gt;&lt;/span&gt;&lt;/div&gt;</description>
      <Point>
        <coordinates>-0.262822464285954,50.8365344337471</coordinates>
      </Point>
    </Placemark>
    <Placemark>
      <name>Eastern Avenue</name>
      <Snippet>6543</Snippet>
      <description>&lt;div class="stopInfoWindow-wsxadwap" data-stopid="6543"&gt;&lt;span class="naptancode"&gt;wsxadwap&lt;/span&gt;&lt;span class="services"&gt;&lt;/span&gt;&lt;/div&gt;</description>
      <Point>
        <coordinates>-0.26489808333503,50.8346094414233</coordinates>
      </Point>
    </Placemark>
    <Placemark>
      <name>Duke of Wellington</name>
      <Snippet>6544</Snippet>
      <description>&lt;div class="stopInfoWindow-wsxadwgj" data-stopid="6544"&gt;&lt;span class="naptancode"&gt;wsxadwgj&lt;/span&gt;&lt;span class="services"&gt;&lt;/span&gt;&lt;/div&gt;</description>
      <Point>
        <coordinates>-0.269216030836104,50.8328234024267</coordinates>
      </Point>
    </Placemark>
    <Placemark>
      <name>The Driveway</name>
      <Snippet>6545</Snippet>
      <description>&lt;div class="stopInfoWindow-wsxadpaw" data-stopid="6545"&gt;&lt;span class="naptancode"&gt;wsxadpaw&lt;/span&gt;&lt;span class="services"&gt;&lt;/span&gt;&lt;/div&gt;</description>
      <Point>
        <coordinates>-0.273564444444444,50.8402566666667</coordinates>
      </Point>
    </Placemark>
    <Placemark>
      <name>Shoreham Station</name>
      <Snippet>6546</Snippet>
      <description>&lt;div class="stopInfoWindow-wsxadwdw" data-stopid="6546"&gt;&lt;span class="naptancode"&gt;wsxadwdw&lt;/span&gt;&lt;span class="services"&gt;&lt;/span&gt;&lt;/div&gt;</description>
      <Point>
        <coordinates>-0.272409574076338,50.8347489981177</coordinates>
      </Point>
    </Placemark>
    <Placemark>
      <name>Ham Road</name>
      <Snippet>6547</Snippet>
      <description>&lt;div class="stopInfoWindow-wsxadwdt" data-stopid="6547"&gt;&lt;span class="naptancode"&gt;wsxadwdt&lt;/span&gt;&lt;span class="services"&gt;&lt;/span&gt;&lt;/div&gt;</description>
      <Point>
        <coordinates>-0.272150417989088,50.8339166252375</coordinates>
      </Point>
    </Placemark>
    <Placemark>
      <name>Shoreham Footbridge</name>
      <Snippet>6548</Snippet>
      <description>&lt;div class="stopInfoWindow-wsxadpad" data-stopid="6548"&gt;&lt;span class="naptancode"&gt;wsxadpad&lt;/span&gt;&lt;span class="services"&gt;&lt;/span&gt;&lt;/div&gt;</description>
      <Point>
        <coordinates>-0.275590986013412,50.8317909240723</coordinates>
      </Point>
    </Placemark>
    <Placemark>
      <name>Shoreham High Street</name>
      <Snippet>6549</Snippet>
      <description>&lt;div class="stopInfoWindow-wsxadpaj" data-stopid="6549"&gt;&lt;span class="naptancode"&gt;wsxadpaj&lt;/span&gt;&lt;span class="services"&gt;&lt;/span&gt;&lt;/div&gt;</description>
      <Point>
        <coordinates>-0.27750399708748,50.8323075656066</coordinates>
      </Point>
    </Placemark>
    <Placemark>
      <name>Adur Recreation Ground</name>
      <Snippet>6550</Snippet>
      <description>&lt;div class="stopInfoWindow-wsxdtapj" data-stopid="6550"&gt;&lt;span class="naptancode"&gt;wsxdtapj&lt;/span&gt;&lt;span class="services"&gt;&lt;/span&gt;&lt;/div&gt;</description>
      <Point>
        <coordinates>-0.283675163984296,50.8303717179041</coordinates>
      </Point>
    </Placemark>
    <Placemark>
      <name>Swiss Cottage</name>
      <Snippet>6551</Snippet>
      <description>&lt;div class="stopInfoWindow-wsxadmpm" data-stopid="6551"&gt;&lt;span class="naptancode"&gt;wsxadmpm&lt;/span&gt;&lt;span class="services"&gt;&lt;/span&gt;&lt;/div&gt;</description>
      <Point>
        <coordinates>-0.280412087300619,50.8353335118232</coordinates>
      </Point>
    </Placemark>
    <Placemark>
      <name>Old Shoreham Road</name>
      <Snippet>6552</Snippet>
      <description>&lt;div class="stopInfoWindow-wsxadmpj" data-stopid="6552"&gt;&lt;span class="naptancode"&gt;wsxadmpj&lt;/span&gt;&lt;span class="services"&gt;&lt;/span&gt;&lt;/div&gt;</description>
      <Point>
        <coordinates>-0.283407711639405,50.8373815578209</coordinates>
      </Point>
    </Placemark>
    <Placemark>
      <name>Red Lion</name>
      <Snippet>6553</Snippet>
      <description>&lt;div class="stopInfoWindow-wsxadmpw" data-stopid="6553"&gt;&lt;span class="naptancode"&gt;wsxadmpw&lt;/span&gt;&lt;span class="services"&gt;&lt;/span&gt;&lt;/div&gt;</description>
      <Point>
        <coordinates>-0.285896740739613,50.8400854737366</coordinates>
      </Point>
    </Placemark>
    <Placemark>
      <name>Port Hall Road</name>
      <Snippet>6554</Snippet>
      <description>&lt;div class="stopInfoWindow-brimpdg" data-stopid="6554"&gt;&lt;span class="naptancode"&gt;brimpdg&lt;/span&gt;&lt;span class="services"&gt;&lt;/span&gt;&lt;/div&gt;</description>
      <Point>
        <coordinates>-0.151429340243348,50.8352090512863</coordinates>
      </Point>
    </Placemark>
    <Placemark>
      <name>Park Lane</name>
      <Snippet>6555</Snippet>
      <description>&lt;div class="stopInfoWindow-wsxadtgw" data-stopid="6555"&gt;&lt;span class="naptancode"&gt;wsxadtgw&lt;/span&gt;&lt;span class="services"&gt;&lt;/span&gt;&lt;/div&gt;</description>
      <Point>
        <coordinates>-0.242817079366053,50.8336796892069</coordinates>
      </Point>
    </Placemark>
    <Placemark>
      <name>Booth Museum</name>
      <Snippet>6556</Snippet>
      <description>&lt;div class="stopInfoWindow-brijmtg" data-stopid="6556"&gt;&lt;span class="naptancode"&gt;brijmtg&lt;/span&gt;&lt;span class="services"&gt;&lt;/span&gt;&lt;/div&gt;</description>
      <Point>
        <coordinates>-0.15326182544231,50.8371645793773</coordinates>
      </Point>
    </Placemark>
    <Placemark>
      <name>Dyke Tavern</name>
      <Snippet>6557</Snippet>
      <description>&lt;div class="stopInfoWindow-briagmp" data-stopid="6557"&gt;&lt;span class="naptancode"&gt;briagmp&lt;/span&gt;&lt;span class="services"&gt;&lt;/span&gt;&lt;/div&gt;</description>
      <Point>
        <coordinates>-0.155039579366041,50.8385928620996</coordinates>
      </Point>
    </Placemark>
    <Placemark>
      <name>Cardinal Newman School C</name>
      <Snippet>6558</Snippet>
      <description>&lt;div class="stopInfoWindow-briatjp" data-stopid="6558"&gt;&lt;span class="naptancode"&gt;briatjp&lt;/span&gt;&lt;span class="services"&gt;&lt;/span&gt;&lt;/div&gt;</description>
      <Point>
        <coordinates>-0.157786443829528,50.837645231442</coordinates>
      </Point>
    </Placemark>
    <Placemark>
      <name>Southlands Outpatients</name>
      <Snippet>6559</Snippet>
      <description>&lt;div class="stopInfoWindow-wsxadwam" data-stopid="6559"&gt;&lt;span class="naptancode"&gt;wsxadwam&lt;/span&gt;&lt;span class="services"&gt;&lt;/span&gt;&lt;/div&gt;</description>
      <Point>
        <coordinates>-0.255690395832056,50.8406228624198</coordinates>
      </Point>
    </Placemark>
    <Placemark>
      <name>Upper Drive</name>
      <Snippet>6560</Snippet>
      <description>&lt;div class="stopInfoWindow-brijdaw" data-stopid="6560"&gt;&lt;span class="naptancode"&gt;brijdaw&lt;/span&gt;&lt;span class="services"&gt;&lt;/span&gt;&lt;/div&gt;</description>
      <Point>
        <coordinates>-0.166565,50.8346444444445</coordinates>
      </Point>
    </Placemark>
    <Placemark>
      <name>Lansdowne Road</name>
      <Snippet>6561</Snippet>
      <description>&lt;div class="stopInfoWindow-bridtjw" data-stopid="6561"&gt;&lt;span class="naptancode"&gt;bridtjw&lt;/span&gt;&lt;span class="services"&gt;&lt;/span&gt;&lt;/div&gt;</description>
      <Point>
        <coordinates>-0.158709130952615,50.8277998281079</coordinates>
      </Point>
    </Placemark>
    <Placemark>
      <name>Southlands Post Office</name>
      <Snippet>6562</Snippet>
      <description>&lt;div class="stopInfoWindow-wsxadpgd" data-stopid="6562"&gt;&lt;span class="naptancode"&gt;wsxadpgd&lt;/span&gt;&lt;span class="services"&gt;&lt;/span&gt;&lt;/div&gt;</description>
      <Point>
        <coordinates>-0.260535925626761,50.8411500248817</coordinates>
      </Point>
    </Placemark>
    <Placemark>
      <name>Bromley Road</name>
      <Snippet>6563</Snippet>
      <description>&lt;div class="stopInfoWindow-brijwmp" data-stopid="6563"&gt;&lt;span class="naptancode"&gt;brijwmp&lt;/span&gt;&lt;span class="services"&gt;&lt;/span&gt;&lt;/div&gt;</description>
      <Point>
        <coordinates>-0.133738231480918,50.8341816666667</coordinates>
      </Point>
    </Placemark>
    <Placemark>
      <name>Friar Road East End</name>
      <Snippet>6564</Snippet>
      <description>&lt;div class="stopInfoWindow-briajgw" data-stopid="6564"&gt;&lt;span class="naptancode"&gt;briajgw&lt;/span&gt;&lt;span class="services"&gt;&lt;/span&gt;&lt;/div&gt;</description>
      <Point>
        <coordinates>-0.135981276631356,50.8509957485166</coordinates>
      </Point>
    </Placemark>
    <Placemark>
      <name>The Saltings</name>
      <Snippet>6565</Snippet>
      <description>&lt;div class="stopInfoWindow-wsxadmdt" data-stopid="6565"&gt;&lt;span class="naptancode"&gt;wsxadmdt&lt;/span&gt;&lt;span class="services"&gt;&lt;/span&gt;&lt;/div&gt;</description>
      <Point>
        <coordinates>-0.287619292736054,50.8278991235385</coordinates>
      </Point>
    </Placemark>
    <Placemark>
      <name>Mardyke</name>
      <Snippet>6566</Snippet>
      <description>&lt;div class="stopInfoWindow-wsxadmdp" data-stopid="6566"&gt;&lt;span class="naptancode"&gt;wsxadmdp&lt;/span&gt;&lt;span class="services"&gt;&lt;/span&gt;&lt;/div&gt;</description>
      <Point>
        <coordinates>-0.283799271163949,50.8285160058847</coordinates>
      </Point>
    </Placemark>
    <Placemark>
      <name>Beach Green</name>
      <Snippet>6567</Snippet>
      <description>&lt;div class="stopInfoWindow-wsxadmdj" data-stopid="6567"&gt;&lt;span class="naptancode"&gt;wsxadmdj&lt;/span&gt;&lt;span class="services"&gt;&lt;/span&gt;&lt;/div&gt;</description>
      <Point>
        <coordinates>-0.279120922088631,50.8276893149453</coordinates>
      </Point>
    </Placemark>
    <Placemark>
      <name>The Burrells South End</name>
      <Snippet>6568</Snippet>
      <description>&lt;div class="stopInfoWindow-wsxadmaw" data-stopid="6568"&gt;&lt;span class="naptancode"&gt;wsxadmaw&lt;/span&gt;&lt;span class="services"&gt;&lt;/span&gt;&lt;/div&gt;</description>
      <Point>
        <coordinates>-0.255652010440826,50.8277397155762</coordinates>
      </Point>
    </Placemark>
    <Placemark>
      <name>Bottom of The Avenue</name>
      <Snippet>6569</Snippet>
      <description>&lt;div class="stopInfoWindow-briawpa" data-stopid="6569"&gt;&lt;span class="naptancode"&gt;briawpa&lt;/span&gt;&lt;span class="services"&gt;&lt;/span&gt;&lt;/div&gt;</description>
      <Point>
        <coordinates>-0.115158744156354,50.8457387066918</coordinates>
      </Point>
    </Placemark>
    <Placemark>
      <name>The Avenue Steps</name>
      <Snippet>6570</Snippet>
      <description>&lt;div class="stopInfoWindow-briagmt" data-stopid="6570"&gt;&lt;span class="naptancode"&gt;briagmt&lt;/span&gt;&lt;span class="services"&gt;&lt;/span&gt;&lt;/div&gt;</description>
      <Point>
        <coordinates>-0.113244892857873,50.8431102625624</coordinates>
      </Point>
    </Placemark>
    <Placemark>
      <name>Manton Road</name>
      <Snippet>6571</Snippet>
      <description>&lt;div class="stopInfoWindow-brijmap" data-stopid="6571"&gt;&lt;span class="naptancode"&gt;brijmap&lt;/span&gt;&lt;span class="services"&gt;&lt;/span&gt;&lt;/div&gt;</description>
      <Point>
        <coordinates>-0.109458542327883,50.8410624668709</coordinates>
      </Point>
    </Placemark>
    <Placemark>
      <name>The Avenue Shops</name>
      <Snippet>6572</Snippet>
      <description>&lt;div class="stopInfoWindow-bridmtw" data-stopid="6572"&gt;&lt;span class="naptancode"&gt;bridmtw&lt;/span&gt;&lt;span class="services"&gt;&lt;/span&gt;&lt;/div&gt;</description>
      <Point>
        <coordinates>-0.106981761753568,50.8415188598266</coordinates>
      </Point>
    </Placemark>
    <Placemark>
      <name>Heath Hill Lodge</name>
      <Snippet>6573</Snippet>
      <description>&lt;div class="stopInfoWindow-briadmp" data-stopid="6573"&gt;&lt;span class="naptancode"&gt;briadmp&lt;/span&gt;&lt;span class="services"&gt;&lt;/span&gt;&lt;/div&gt;</description>
      <Point>
        <coordinates>-0.104843333333329,50.8426754778732</coordinates>
      </Point>
    </Placemark>
    <Placemark>
      <name>Heath Hill Avenue Surgery</name>
      <Snippet>6574</Snippet>
      <description>&lt;div class="stopInfoWindow-bridgam" data-stopid="6574"&gt;&lt;span class="naptancode"&gt;bridgam&lt;/span&gt;&lt;span class="services"&gt;&lt;/span&gt;&lt;/div&gt;</description>
      <Point>
        <coordinates>-0.101510725915441,50.8415006408122</coordinates>
      </Point>
    </Placemark>
    <Placemark>
      <name>Hornby Road East End</name>
      <Snippet>6575</Snippet>
      <description>&lt;div class="stopInfoWindow-brijgta" data-stopid="6575"&gt;&lt;span class="naptancode"&gt;brijgta&lt;/span&gt;&lt;span class="services"&gt;&lt;/span&gt;&lt;/div&gt;</description>
      <Point>
        <coordinates>-0.0920952036976885,50.8410245973331</coordinates>
      </Point>
    </Placemark>
    <Placemark>
      <name>Leybourne Road</name>
      <Snippet>6576</Snippet>
      <description>&lt;div class="stopInfoWindow-bridgwa" data-stopid="6576"&gt;&lt;span class="naptancode"&gt;bridgwa&lt;/span&gt;&lt;span class="services"&gt;&lt;/span&gt;&lt;/div&gt;</description>
      <Point>
        <coordinates>-0.0940406216939249,50.8421260177405</coordinates>
      </Point>
    </Placemark>
    <Placemark>
      <name>Taunton Way</name>
      <Snippet>6577</Snippet>
      <description>&lt;div class="stopInfoWindow-brijwmt" data-stopid="6577"&gt;&lt;span class="naptancode"&gt;brijwmt&lt;/span&gt;&lt;span class="services"&gt;&lt;/span&gt;&lt;/div&gt;</description>
      <Point>
        <coordinates>-0.0978067738087951,50.8409060166776</coordinates>
      </Point>
    </Placemark>
    <Placemark>
      <name>Auckland Drive</name>
      <Snippet>6578</Snippet>
      <description>&lt;div class="stopInfoWindow-brijgwp" data-stopid="6578"&gt;&lt;span class="naptancode"&gt;brijgwp&lt;/span&gt;&lt;span class="services"&gt;&lt;/span&gt;&lt;/div&gt;</description>
      <Point>
        <coordinates>-0.101052079366042,50.8397882248371</coordinates>
      </Point>
    </Placemark>
    <Placemark>
      <name>Hikers Rest</name>
      <Snippet>6579</Snippet>
      <description>&lt;div class="stopInfoWindow-brijwmw" data-stopid="6579"&gt;&lt;span class="naptancode"&gt;brijwmw&lt;/span&gt;&lt;span class="services"&gt;&lt;/span&gt;&lt;/div&gt;</description>
      <Point>
        <coordinates>-0.103005349205874,50.8583247088819</coordinates>
      </Point>
    </Placemark>
    <Placemark>
      <name>Forest Road</name>
      <Snippet>6580</Snippet>
      <description>&lt;div class="stopInfoWindow-bridgjp" data-stopid="6580"&gt;&lt;span class="naptancode"&gt;bridgjp&lt;/span&gt;&lt;span class="services"&gt;&lt;/span&gt;&lt;/div&gt;</description>
      <Point>
        <coordinates>-0.106663955027253,50.8608494728205</coordinates>
      </Point>
    </Placemark>
    <Placemark>
      <name>Middleton Rise</name>
      <Snippet>6581</Snippet>
      <description>&lt;div class="stopInfoWindow-brijwpa" data-stopid="6581"&gt;&lt;span class="naptancode"&gt;brijwpa&lt;/span&gt;&lt;span class="services"&gt;&lt;/span&gt;&lt;/div&gt;</description>
      <Point>
        <coordinates>-0.107539271163946,50.8604280382441</coordinates>
      </Point>
    </Placemark>
    <Placemark>
      <name>Twyford Road</name>
      <Snippet>6582</Snippet>
      <description>&lt;div class="stopInfoWindow-bridpdg" data-stopid="6582"&gt;&lt;span class="naptancode"&gt;bridpdg&lt;/span&gt;&lt;span class="services"&gt;&lt;/span&gt;&lt;/div&gt;</description>
      <Point>
        <coordinates>-0.109330417989104,50.8611578260554</coordinates>
      </Point>
    </Placemark>
    <Placemark>
      <name>Ingham Drive</name>
      <Snippet>6583</Snippet>
      <description>&lt;div class="stopInfoWindow-brijpjw" data-stopid="6583"&gt;&lt;span class="naptancode"&gt;brijpjw&lt;/span&gt;&lt;span class="services"&gt;&lt;/span&gt;&lt;/div&gt;</description>
      <Point>
        <coordinates>-0.110913333333333,50.8628333333333</coordinates>
      </Point>
    </Placemark>
    <Placemark>
      <name>Standean Close</name>
      <Snippet>6584</Snippet>
      <description>&lt;div class="stopInfoWindow-bridjmg" data-stopid="6584"&gt;&lt;span class="naptancode"&gt;bridjmg&lt;/span&gt;&lt;span class="services"&gt;&lt;/span&gt;&lt;/div&gt;</description>
      <Point>
        <coordinates>-0.114296248677577,50.8625788592815</coordinates>
      </Point>
    </Placemark>
    <Placemark>
      <name>Haig Avenue</name>
      <Snippet>6585</Snippet>
      <description>&lt;div class="stopInfoWindow-brijgmd" data-stopid="6585"&gt;&lt;span class="naptancode"&gt;brijgmd&lt;/span&gt;&lt;span class="services"&gt;&lt;/span&gt;&lt;/div&gt;</description>
      <Point>
        <coordinates>-0.115454689153043,50.8645086480584</coordinates>
      </Point>
    </Placemark>
    <Placemark>
      <name>Saunders Hill</name>
      <Snippet>6586</Snippet>
      <description>&lt;div class="stopInfoWindow-bridapd" data-stopid="6586"&gt;&lt;span class="naptancode"&gt;bridapd&lt;/span&gt;&lt;span class="services"&gt;&lt;/span&gt;&lt;/div&gt;</description>
      <Point>
        <coordinates>-0.113852731883526,50.8667332628899</coordinates>
      </Point>
    </Placemark>
    <Placemark>
      <name>Old Boat Corner</name>
      <Snippet>6587</Snippet>
      <description>&lt;div class="stopInfoWindow-brijatg" data-stopid="6587"&gt;&lt;span class="naptancode"&gt;brijatg&lt;/span&gt;&lt;span class="services"&gt;&lt;/span&gt;&lt;/div&gt;</description>
      <Point>
        <coordinates>-0.119626044972743,50.8700280900978</coordinates>
      </Point>
    </Placemark>
    <Placemark>
      <name>Crowhurst Road North</name>
      <Snippet>6588</Snippet>
      <description>&lt;div class="stopInfoWindow-bridtam" data-stopid="6588"&gt;&lt;span class="naptancode"&gt;bridtam&lt;/span&gt;&lt;span class="services"&gt;&lt;/span&gt;&lt;/div&gt;</description>
      <Point>
        <coordinates>-0.122849509119989,50.8677967146225</coordinates>
      </Point>
    </Placemark>
    <Placemark>
      <name>Asda Crowhurst Road</name>
      <Snippet>6589</Snippet>
      <description>&lt;div class="stopInfoWindow-briapwd" data-stopid="6589"&gt;&lt;span class="naptancode"&gt;briapwd&lt;/span&gt;&lt;span class="services"&gt;&lt;/span&gt;&lt;/div&gt;</description>
      <Point>
        <coordinates>-0.125499241054057,50.867068287729</coordinates>
      </Point>
    </Placemark>
    <Placemark>
      <name>Carden Hill</name>
      <Snippet>6590</Snippet>
      <description>&lt;div class="stopInfoWindow-bridgpm" data-stopid="6590"&gt;&lt;span class="naptancode"&gt;bridgpm&lt;/span&gt;&lt;span class="services"&gt;&lt;/span&gt;&lt;/div&gt;</description>
      <Point>
        <coordinates>-0.129361146825151,50.8648644868001</coordinates>
      </Point>
    </Placemark>
    <Placemark>
      <name>County Oak Avenue</name>
      <Snippet>6591</Snippet>
      <description>&lt;div class="stopInfoWindow-briajwa" data-stopid="6591"&gt;&lt;span class="naptancode"&gt;briajwa&lt;/span&gt;&lt;span class="services"&gt;&lt;/span&gt;&lt;/div&gt;</description>
      <Point>
        <coordinates>-0.130698970896395,50.8627024028754</coordinates>
      </Point>
    </Placemark>
    <Placemark>
      <name>Carden Crescent</name>
      <Snippet>6592</Snippet>
      <description>&lt;div class="stopInfoWindow-briapjm" data-stopid="6592"&gt;&lt;span class="naptancode"&gt;briapjm&lt;/span&gt;&lt;span class="services"&gt;&lt;/span&gt;&lt;/div&gt;</description>
      <Point>
        <coordinates>-0.135418649470016,50.8620394736847</coordinates>
      </Point>
    </Placemark>
    <Placemark>
      <name>Carden Crescent</name>
      <Snippet>6593</Snippet>
      <description>&lt;div class="stopInfoWindow-brijdjt" data-stopid="6593"&gt;&lt;span class="naptancode"&gt;brijdjt&lt;/span&gt;&lt;span class="services"&gt;&lt;/span&gt;&lt;/div&gt;</description>
      <Point>
        <coordinates>-0.135270000000003,50.8628538590818</coordinates>
      </Point>
    </Placemark>
    <Placemark>
      <name>Portfield Avenue</name>
      <Snippet>6594</Snippet>
      <description>&lt;div class="stopInfoWindow-brijwpd" data-stopid="6594"&gt;&lt;span class="naptancode"&gt;brijwpd&lt;/span&gt;&lt;span class="services"&gt;&lt;/span&gt;&lt;/div&gt;</description>
      <Point>
        <coordinates>-0.134930412699383,50.8647044870558</coordinates>
      </Point>
    </Placemark>
    <Placemark>
      <name>Ladies Mile Road Middle</name>
      <Snippet>6595</Snippet>
      <description>&lt;div class="stopInfoWindow-brijwpg" data-stopid="6595"&gt;&lt;span class="naptancode"&gt;brijwpg&lt;/span&gt;&lt;span class="services"&gt;&lt;/span&gt;&lt;/div&gt;</description>
      <Point>
        <coordinates>-0.136725723743432,50.864592355836</coordinates>
      </Point>
    </Placemark>
    <Placemark>
      <name>Ladies Mile Road</name>
      <Snippet>6596</Snippet>
      <description>&lt;div class="stopInfoWindow-bridjtj" data-stopid="6596"&gt;&lt;span class="naptancode"&gt;bridjtj&lt;/span&gt;&lt;span class="services"&gt;&lt;/span&gt;&lt;/div&gt;</description>
      <Point>
        <coordinates>-0.139958333333341,50.8641458270214</coordinates>
      </Point>
    </Placemark>
    <Placemark>
      <name>Highview Avenue South</name>
      <Snippet>6597</Snippet>
      <description>&lt;div class="stopInfoWindow-brijwpj" data-stopid="6597"&gt;&lt;span class="naptancode"&gt;brijwpj&lt;/span&gt;&lt;span class="services"&gt;&lt;/span&gt;&lt;/div&gt;</description>
      <Point>
        <coordinates>-0.14774519205093,50.8636182748297</coordinates>
      </Point>
    </Placemark>
    <Placemark>
      <name>Patcham Old Village</name>
      <Snippet>6598</Snippet>
      <description>&lt;div class="stopInfoWindow-bridgjg" data-stopid="6598"&gt;&lt;span class="naptancode"&gt;bridgjg&lt;/span&gt;&lt;span class="services"&gt;&lt;/span&gt;&lt;/div&gt;</description>
      <Point>
        <coordinates>-0.150356739759436,50.8631897865757</coordinates>
      </Point>
    </Placemark>
    <Placemark>
      <name>Audrey Close</name>
      <Snippet>6599</Snippet>
      <description>&lt;div class="stopInfoWindow-bridtwd" data-stopid="6599"&gt;&lt;span class="naptancode"&gt;bridtwd&lt;/span&gt;&lt;span class="services"&gt;&lt;/span&gt;&lt;/div&gt;</description>
      <Point>
        <coordinates>-0.150606666666666,50.8611462648138</coordinates>
      </Point>
    </Placemark>
    <Placemark>
      <name>Preston Circus (stop E)</name>
      <Snippet>6600</Snippet>
      <description>&lt;div class="stopInfoWindow-briadmd" data-stopid="6600"&gt;&lt;span class="naptancode"&gt;briadmd&lt;/span&gt;&lt;span class="services"&gt;&lt;/span&gt;&lt;/div&gt;</description>
      <Point>
        <coordinates>-0.140166666666667,50.8335</coordinates>
      </Point>
    </Placemark>
    <Placemark>
      <name>York Grove</name>
      <Snippet>6601</Snippet>
      <description>&lt;div class="stopInfoWindow-bridwga" data-stopid="6601"&gt;&lt;span class="naptancode"&gt;bridwga&lt;/span&gt;&lt;span class="services"&gt;&lt;/span&gt;&lt;/div&gt;</description>
      <Point>
        <coordinates>-0.144951671956384,50.8321917762668</coordinates>
      </Point>
    </Placemark>
    <Placemark>
      <name>Bottom of Carden Avenue</name>
      <Snippet>6602</Snippet>
      <description>&lt;div class="stopInfoWindow-brijwgj" data-stopid="6602"&gt;&lt;span class="naptancode"&gt;brijwgj&lt;/span&gt;&lt;span class="services"&gt;&lt;/span&gt;&lt;/div&gt;</description>
      <Point>
        <coordinates>-0.153155952692023,50.8564643055469</coordinates>
      </Point>
    </Placemark>
    <Placemark>
      <name>Graham Avenue</name>
      <Snippet>6603</Snippet>
      <description>&lt;div class="stopInfoWindow-briajta" data-stopid="6603"&gt;&lt;span class="naptancode"&gt;briajta&lt;/span&gt;&lt;span class="services"&gt;&lt;/span&gt;&lt;/div&gt;</description>
      <Point>
        <coordinates>-0.149103333333333,50.8568416666667</coordinates>
      </Point>
    </Placemark>
    <Placemark>
      <name>Patchdean</name>
      <Snippet>6604</Snippet>
      <description>&lt;div class="stopInfoWindow-bridagd" data-stopid="6604"&gt;&lt;span class="naptancode"&gt;bridagd&lt;/span&gt;&lt;span class="services"&gt;&lt;/span&gt;&lt;/div&gt;</description>
      <Point>
        <coordinates>-0.145556564814247,50.8600727222275</coordinates>
      </Point>
    </Placemark>
    <Placemark>
      <name>Winfield Avenue</name>
      <Snippet>6605</Snippet>
      <description>&lt;div class="stopInfoWindow-briajtp" data-stopid="6605"&gt;&lt;span class="naptancode"&gt;briajtp&lt;/span&gt;&lt;span class="services"&gt;&lt;/span&gt;&lt;/div&gt;</description>
      <Point>
        <coordinates>-0.145286564814249,50.8619811580734</coordinates>
      </Point>
    </Placemark>
    <Placemark>
      <name>The Ladies Mile</name>
      <Snippet>6606</Snippet>
      <description>&lt;div class="stopInfoWindow-brijwpm" data-stopid="6606"&gt;&lt;span class="naptancode"&gt;brijwpm&lt;/span&gt;&lt;span class="services"&gt;&lt;/span&gt;&lt;/div&gt;</description>
      <Point>
        <coordinates>-0.144913440475463,50.8645124010352</coordinates>
      </Point>
    </Placemark>
    <Placemark>
      <name>Mackie Avenue</name>
      <Snippet>6607</Snippet>
      <description>&lt;div class="stopInfoWindow-brijmjg" data-stopid="6607"&gt;&lt;span class="naptancode"&gt;brijmjg&lt;/span&gt;&lt;span class="services"&gt;&lt;/span&gt;&lt;/div&gt;</description>
      <Point>
        <coordinates>-0.135322913527482,50.8666974086764</coordinates>
      </Point>
    </Placemark>
    <Placemark>
      <name>Thornhill Avenue</name>
      <Snippet>6608</Snippet>
      <description>&lt;div class="stopInfoWindow-bridmtg" data-stopid="6608"&gt;&lt;span class="naptancode"&gt;bridmtg&lt;/span&gt;&lt;span class="services"&gt;&lt;/span&gt;&lt;/div&gt;</description>
      <Point>
        <coordinates>-0.136980519841512,50.8658639529488</coordinates>
      </Point>
    </Placemark>
    <Placemark>
      <name>Bowling Green</name>
      <Snippet>6609</Snippet>
      <description>&lt;div class="stopInfoWindow-brijmtp" data-stopid="6609"&gt;&lt;span class="naptancode"&gt;brijmtp&lt;/span&gt;&lt;span class="services"&gt;&lt;/span&gt;&lt;/div&gt;</description>
      <Point>
        <coordinates>-0.14023010185241,50.8654241618401</coordinates>
      </Point>
    </Placemark>
    <Placemark>
      <name>Cuckmere Way</name>
      <Snippet>6610</Snippet>
      <description>&lt;div class="stopInfoWindow-briagwd" data-stopid="6610"&gt;&lt;span class="naptancode"&gt;briagwd&lt;/span&gt;&lt;span class="services"&gt;&lt;/span&gt;&lt;/div&gt;</description>
      <Point>
        <coordinates>-0.126340417989104,50.8632891740369</coordinates>
      </Point>
    </Placemark>
    <Placemark>
      <name>Orchid View</name>
      <Snippet>6611</Snippet>
      <description>&lt;div class="stopInfoWindow-briajwg" data-stopid="6611"&gt;&lt;span class="naptancode"&gt;briajwg&lt;/span&gt;&lt;span class="services"&gt;&lt;/span&gt;&lt;/div&gt;</description>
      <Point>
        <coordinates>-0.123872630298147,50.8631047381682</coordinates>
      </Point>
    </Placemark>
    <Placemark>
      <name>Elsted Crescent</name>
      <Snippet>6612</Snippet>
      <description>&lt;div class="stopInfoWindow-brijwpt" data-stopid="6612"&gt;&lt;span class="naptancode"&gt;brijwpt&lt;/span&gt;&lt;span class="services"&gt;&lt;/span&gt;&lt;/div&gt;</description>
      <Point>
        <coordinates>-0.123512502644849,50.8606322995038</coordinates>
      </Point>
    </Placemark>
    <Placemark>
      <name>Rotherfield Crescent</name>
      <Snippet>6613</Snippet>
      <description>&lt;div class="stopInfoWindow-briatwa" data-stopid="6613"&gt;&lt;span class="naptancode"&gt;briatwa&lt;/span&gt;&lt;span class="services"&gt;&lt;/span&gt;&lt;/div&gt;</description>
      <Point>
        <coordinates>-0.131904169917116,50.8577151372275</coordinates>
      </Point>
    </Placemark>
    <Placemark>
      <name>Lyminster Avenue</name>
      <Snippet>6614</Snippet>
      <description>&lt;div class="stopInfoWindow-brimpdj" data-stopid="6614"&gt;&lt;span class="naptancode"&gt;brimpdj&lt;/span&gt;&lt;span class="services"&gt;&lt;/span&gt;&lt;/div&gt;</description>
      <Point>
        <coordinates>-0.131481990218156,50.8594389927694</coordinates>
      </Point>
    </Placemark>
    <Placemark>
      <name>County Oak Avenue</name>
      <Snippet>6615</Snippet>
      <description>&lt;div class="stopInfoWindow-brijagm" data-stopid="6615"&gt;&lt;span class="naptancode"&gt;brijagm&lt;/span&gt;&lt;span class="services"&gt;&lt;/span&gt;&lt;/div&gt;</description>
      <Point>
        <coordinates>-0.127869993448257,50.8606719970703</coordinates>
      </Point>
    </Placemark>
    <Placemark>
      <name>Woodbourne Garage</name>
      <Snippet>6616</Snippet>
      <description>&lt;div class="stopInfoWindow-briapjt" data-stopid="6616"&gt;&lt;span class="naptancode"&gt;briapjt&lt;/span&gt;&lt;span class="services"&gt;&lt;/span&gt;&lt;/div&gt;</description>
      <Point>
        <coordinates>-0.133755922317513,50.8556543456709</coordinates>
      </Point>
    </Placemark>
    <Placemark>
      <name>Surrenden Road</name>
      <Snippet>6617</Snippet>
      <description>&lt;div class="stopInfoWindow-brijwag" data-stopid="6617"&gt;&lt;span class="naptancode"&gt;brijwag&lt;/span&gt;&lt;span class="services"&gt;&lt;/span&gt;&lt;/div&gt;</description>
      <Point>
        <coordinates>-0.134676146825148,50.8530742924809</coordinates>
      </Point>
    </Placemark>
    <Placemark>
      <name>Friar Road</name>
      <Snippet>6618</Snippet>
      <description>&lt;div class="stopInfoWindow-brijgtm" data-stopid="6618"&gt;&lt;span class="naptancode"&gt;brijgtm&lt;/span&gt;&lt;span class="services"&gt;&lt;/span&gt;&lt;/div&gt;</description>
      <Point>
        <coordinates>-0.135023751322434,50.8505840818616</coordinates>
      </Point>
    </Placemark>
    <Placemark>
      <name>Varndean High School</name>
      <Snippet>6619</Snippet>
      <description>&lt;div class="stopInfoWindow-briawmp" data-stopid="6619"&gt;&lt;span class="naptancode"&gt;briawmp&lt;/span&gt;&lt;span class="services"&gt;&lt;/span&gt;&lt;/div&gt;</description>
      <Point>
        <coordinates>-0.135252997279167,50.8485984802246</coordinates>
      </Point>
    </Placemark>
    <Placemark>
      <name>Osborne Road</name>
      <Snippet>6620</Snippet>
      <description>&lt;div class="stopInfoWindow-brijpwg" data-stopid="6620"&gt;&lt;span class="naptancode"&gt;brijpwg&lt;/span&gt;&lt;span class="services"&gt;&lt;/span&gt;&lt;/div&gt;</description>
      <Point>
        <coordinates>-0.135304898147575,50.8471345151236</coordinates>
      </Point>
    </Placemark>
    <Placemark>
      <name>St Matthias Church</name>
      <Snippet>6621</Snippet>
      <description>&lt;div class="stopInfoWindow-bridtgd" data-stopid="6621"&gt;&lt;span class="naptancode"&gt;bridtgd&lt;/span&gt;&lt;span class="services"&gt;&lt;/span&gt;&lt;/div&gt;</description>
      <Point>
        <coordinates>-0.135032266378394,50.8456373537863</coordinates>
      </Point>
    </Placemark>
    <Placemark>
      <name>Fiveways</name>
      <Snippet>6622</Snippet>
      <description>&lt;div class="stopInfoWindow-brijgat" data-stopid="6622"&gt;&lt;span class="naptancode"&gt;brijgat&lt;/span&gt;&lt;span class="services"&gt;&lt;/span&gt;&lt;/div&gt;</description>
      <Point>
        <coordinates>-0.134410208994551,50.8431464042022</coordinates>
      </Point>
    </Placemark>
    <Placemark>
      <name>Semley Road</name>
      <Snippet>6623</Snippet>
      <description>&lt;div class="stopInfoWindow-briawgj" data-stopid="6623"&gt;&lt;span class="naptancode"&gt;briawgj&lt;/span&gt;&lt;span class="services"&gt;&lt;/span&gt;&lt;/div&gt;</description>
      <Point>
        <coordinates>-0.133975417989092,50.841274307902</coordinates>
      </Point>
    </Placemark>
    <Placemark>
      <name>Rugby Road</name>
      <Snippet>6624</Snippet>
      <description>&lt;div class="stopInfoWindow-brijawm" data-stopid="6624"&gt;&lt;span class="naptancode"&gt;brijawm&lt;/span&gt;&lt;span class="services"&gt;&lt;/span&gt;&lt;/div&gt;</description>
      <Point>
        <coordinates>-0.13347,50.8390933333333</coordinates>
      </Point>
    </Placemark>
    <Placemark>
      <name>Springfield Road</name>
      <Snippet>6625</Snippet>
      <description>&lt;div class="stopInfoWindow-brijamg" data-stopid="6625"&gt;&lt;span class="naptancode"&gt;brijamg&lt;/span&gt;&lt;span class="services"&gt;&lt;/span&gt;&lt;/div&gt;</description>
      <Point>
        <coordinates>-0.133417174220081,50.8378316405778</coordinates>
      </Point>
    </Placemark>
    <Placemark>
      <name>The Roundhill</name>
      <Snippet>6626</Snippet>
      <description>&lt;div class="stopInfoWindow-brijdpt" data-stopid="6626"&gt;&lt;span class="naptancode"&gt;brijdpt&lt;/span&gt;&lt;span class="services"&gt;&lt;/span&gt;&lt;/div&gt;</description>
      <Point>
        <coordinates>-0.133515,50.83586</coordinates>
      </Point>
    </Placemark>
    <Placemark>
      <name>Fiveways</name>
      <Snippet>6627</Snippet>
      <description>&lt;div class="stopInfoWindow-brijmpg" data-stopid="6627"&gt;&lt;span class="naptancode"&gt;brijmpg&lt;/span&gt;&lt;span class="services"&gt;&lt;/span&gt;&lt;/div&gt;</description>
      <Point>
        <coordinates>-0.13477125396729,50.8430239815126</coordinates>
      </Point>
    </Placemark>
    <Placemark>
      <name>Cleveland Road</name>
      <Snippet>6628</Snippet>
      <description>&lt;div class="stopInfoWindow-briawgp" data-stopid="6628"&gt;&lt;span class="naptancode"&gt;briawgp&lt;/span&gt;&lt;span class="services"&gt;&lt;/span&gt;&lt;/div&gt;</description>
      <Point>
        <coordinates>-0.137483333333333,50.8408</coordinates>
      </Point>
    </Placemark>
    <Placemark>
      <name>Rugby Road</name>
      <Snippet>6629</Snippet>
      <description>&lt;div class="stopInfoWindow-briamtp" data-stopid="6629"&gt;&lt;span class="naptancode"&gt;briamtp&lt;/span&gt;&lt;span class="services"&gt;&lt;/span&gt;&lt;/div&gt;</description>
      <Point>
        <coordinates>-0.140183333333333,50.8385333333333</coordinates>
      </Point>
    </Placemark>
    <Placemark>
      <name>Church of the Good Shepherd</name>
      <Snippet>6630</Snippet>
      <description>&lt;div class="stopInfoWindow-brijamp" data-stopid="6630"&gt;&lt;span class="naptancode"&gt;brijamp&lt;/span&gt;&lt;span class="services"&gt;&lt;/span&gt;&lt;/div&gt;</description>
      <Point>
        <coordinates>-0.15796634554863,50.8413038639848</coordinates>
      </Point>
    </Placemark>
    <Placemark>
      <name>Onslow Road</name>
      <Snippet>6631</Snippet>
      <description>&lt;div class="stopInfoWindow-briamjm" data-stopid="6631"&gt;&lt;span class="naptancode"&gt;briamjm&lt;/span&gt;&lt;span class="services"&gt;&lt;/span&gt;&lt;/div&gt;</description>
      <Point>
        <coordinates>-0.159503126983638,50.8441678073627</coordinates>
      </Point>
    </Placemark>
    <Placemark>
      <name>Top of Woodruff Avenue</name>
      <Snippet>6632</Snippet>
      <description>&lt;div class="stopInfoWindow-bridtdj" data-stopid="6632"&gt;&lt;span class="naptancode"&gt;bridtdj&lt;/span&gt;&lt;span class="services"&gt;&lt;/span&gt;&lt;/div&gt;</description>
      <Point>
        <coordinates>-0.159919813275329,50.8453019898046</coordinates>
      </Point>
    </Placemark>
    <Placemark>
      <name>Hazeldene Meads</name>
      <Snippet>6633</Snippet>
      <description>&lt;div class="stopInfoWindow-brijpgp" data-stopid="6633"&gt;&lt;span class="naptancode"&gt;brijpgp&lt;/span&gt;&lt;span class="services"&gt;&lt;/span&gt;&lt;/div&gt;</description>
      <Point>
        <coordinates>-0.1615625,50.8483136111111</coordinates>
      </Point>
    </Placemark>
    <Placemark>
      <name>Tongdean Road</name>
      <Snippet>6634</Snippet>
      <description>&lt;div class="stopInfoWindow-bridawt" data-stopid="6634"&gt;&lt;span class="naptancode"&gt;bridawt&lt;/span&gt;&lt;span class="services"&gt;&lt;/span&gt;&lt;/div&gt;</description>
      <Point>
        <coordinates>-0.163919166666667,50.8506075</coordinates>
      </Point>
    </Placemark>
    <Placemark>
      <name>Hill Brow</name>
      <Snippet>6635</Snippet>
      <description>&lt;div class="stopInfoWindow-brijpad" data-stopid="6635"&gt;&lt;span class="naptancode"&gt;brijpad&lt;/span&gt;&lt;span class="services"&gt;&lt;/span&gt;&lt;/div&gt;</description>
      <Point>
        <coordinates>-0.166444722222222,50.8526091666667</coordinates>
      </Point>
    </Placemark>
    <Placemark>
      <name>Tongdean Lane</name>
      <Snippet>6636</Snippet>
      <description>&lt;div class="stopInfoWindow-bridgma" data-stopid="6636"&gt;&lt;span class="naptancode"&gt;bridgma&lt;/span&gt;&lt;span class="services"&gt;&lt;/span&gt;&lt;/div&gt;</description>
      <Point>
        <coordinates>-0.1696775,50.8550566666667</coordinates>
      </Point>
    </Placemark>
    <Placemark>
      <name>Whitethorn Drive</name>
      <Snippet>6637</Snippet>
      <description>&lt;div class="stopInfoWindow-brijmwj" data-stopid="6637"&gt;&lt;span class="naptancode"&gt;brijmwj&lt;/span&gt;&lt;span class="services"&gt;&lt;/span&gt;&lt;/div&gt;</description>
      <Point>
        <coordinates>-0.169997015872529,50.857460131841</coordinates>
      </Point>
    </Placemark>
    <Placemark>
      <name>Glen Rise</name>
      <Snippet>6638</Snippet>
      <description>&lt;div class="stopInfoWindow-brijtmp" data-stopid="6638"&gt;&lt;span class="naptancode"&gt;brijtmp&lt;/span&gt;&lt;span class="services"&gt;&lt;/span&gt;&lt;/div&gt;</description>
      <Point>
        <coordinates>-0.168135002255436,50.8598858683692</coordinates>
      </Point>
    </Placemark>
    <Placemark>
      <name>Green Ridge</name>
      <Snippet>6639</Snippet>
      <description>&lt;div class="stopInfoWindow-brijwpw" data-stopid="6639"&gt;&lt;span class="naptancode"&gt;brijwpw&lt;/span&gt;&lt;span class="services"&gt;&lt;/span&gt;&lt;/div&gt;</description>
      <Point>
        <coordinates>-0.166950525131233,50.8612941763549</coordinates>
      </Point>
    </Placemark>
    <Placemark>
      <name>Mill Rise</name>
      <Snippet>6640</Snippet>
      <description>&lt;div class="stopInfoWindow-bridagp" data-stopid="6640"&gt;&lt;span class="naptancode"&gt;bridagp&lt;/span&gt;&lt;span class="services"&gt;&lt;/span&gt;&lt;/div&gt;</description>
      <Point>
        <coordinates>-0.164995519841518,50.8613116475196</coordinates>
      </Point>
    </Placemark>
    <Placemark>
      <name>Bramble Rise</name>
      <Snippet>6641</Snippet>
      <description>&lt;div class="stopInfoWindow-bridpga" data-stopid="6641"&gt;&lt;span class="naptancode"&gt;bridpga&lt;/span&gt;&lt;span class="services"&gt;&lt;/span&gt;&lt;/div&gt;</description>
      <Point>
        <coordinates>-0.161400937830611,50.8609652962699</coordinates>
      </Point>
    </Placemark>
    <Placemark>
      <name>Top of Copse Hill</name>
      <Snippet>6642</Snippet>
      <description>&lt;div class="stopInfoWindow-brijwta" data-stopid="6642"&gt;&lt;span class="naptancode"&gt;brijwta&lt;/span&gt;&lt;span class="services"&gt;&lt;/span&gt;&lt;/div&gt;</description>
      <Point>
        <coordinates>-0.158756763229377,50.8598458447044</coordinates>
      </Point>
    </Placemark>
    <Placemark>
      <name>Copse Hill</name>
      <Snippet>6643</Snippet>
      <description>&lt;div class="stopInfoWindow-brijpaw" data-stopid="6643"&gt;&lt;span class="naptancode"&gt;brijpaw&lt;/span&gt;&lt;span class="services"&gt;&lt;/span&gt;&lt;/div&gt;</description>
      <Point>
        <coordinates>-0.156566023826592,50.8587289889878</coordinates>
      </Point>
    </Placemark>
    <Placemark>
      <name>The Deneway</name>
      <Snippet>6644</Snippet>
      <description>&lt;div class="stopInfoWindow-briapgp" data-stopid="6644"&gt;&lt;span class="naptancode"&gt;briapgp&lt;/span&gt;&lt;span class="services"&gt;&lt;/span&gt;&lt;/div&gt;</description>
      <Point>
        <coordinates>-0.157119676470763,50.8568953657745</coordinates>
      </Point>
    </Placemark>
    <Placemark>
      <name>Withdean Sports Complex</name>
      <Snippet>6645</Snippet>
      <description>&lt;div class="stopInfoWindow-brijmdt" data-stopid="6645"&gt;&lt;span class="naptancode"&gt;brijmdt&lt;/span&gt;&lt;span class="services"&gt;&lt;/span&gt;&lt;/div&gt;</description>
      <Point>
        <coordinates>-0.157517477869984,50.8540598809265</coordinates>
      </Point>
    </Placemark>
    <Placemark>
      <name>Bottom of Valley Drive</name>
      <Snippet>6646</Snippet>
      <description>&lt;div class="stopInfoWindow-brijtwt" data-stopid="6646"&gt;&lt;span class="naptancode"&gt;brijtwt&lt;/span&gt;&lt;span class="services"&gt;&lt;/span&gt;&lt;/div&gt;</description>
      <Point>
        <coordinates>-0.160767748951902,50.8542946019678</coordinates>
      </Point>
    </Placemark>
    <Placemark>
      <name>Valley Close</name>
      <Snippet>6647</Snippet>
      <description>&lt;div class="stopInfoWindow-brijptd" data-stopid="6647"&gt;&lt;span class="naptancode"&gt;brijptd&lt;/span&gt;&lt;span class="services"&gt;&lt;/span&gt;&lt;/div&gt;</description>
      <Point>
        <coordinates>-0.16326957407633,50.8553687417372</coordinates>
      </Point>
    </Placemark>
    <Placemark>
      <name>Hillside Way</name>
      <Snippet>6648</Snippet>
      <description>&lt;div class="stopInfoWindow-brijpmw" data-stopid="6648"&gt;&lt;span class="naptancode"&gt;brijpmw&lt;/span&gt;&lt;span class="services"&gt;&lt;/span&gt;&lt;/div&gt;</description>
      <Point>
        <coordinates>-0.166332846561001,50.8560387763348</coordinates>
      </Point>
    </Placemark>
    <Placemark>
      <name>Redhill Drive</name>
      <Snippet>6649</Snippet>
      <description>&lt;div class="stopInfoWindow-bridgmp" data-stopid="6649"&gt;&lt;span class="naptancode"&gt;bridgmp&lt;/span&gt;&lt;span class="services"&gt;&lt;/span&gt;&lt;/div&gt;</description>
      <Point>
        <coordinates>-0.169090445768563,50.8572666666667</coordinates>
      </Point>
    </Placemark>
    <Placemark>
      <name>Friar Crescent</name>
      <Snippet>6650</Snippet>
      <description>&lt;div class="stopInfoWindow-bridwmw" data-stopid="6650"&gt;&lt;span class="naptancode"&gt;bridwmw&lt;/span&gt;&lt;span class="services"&gt;&lt;/span&gt;&lt;/div&gt;</description>
      <Point>
        <coordinates>-0.140330000000004,50.8530161723952</coordinates>
      </Point>
    </Placemark>
    <Placemark>
      <name>Dale Drive</name>
      <Snippet>6651</Snippet>
      <description>&lt;div class="stopInfoWindow-briawmj" data-stopid="6651"&gt;&lt;span class="naptancode"&gt;briawmj&lt;/span&gt;&lt;span class="services"&gt;&lt;/span&gt;&lt;/div&gt;</description>
      <Point>
        <coordinates>-0.140088435185752,50.8610552964398</coordinates>
      </Point>
    </Placemark>